flightTime,flightMode,stateShiranui3,stateBuzzer,pressure,temperature,altitude,descentCount,accelerationX,accelerationY,accelerationZ,gyroX,gyroY,gyroZ,yaw,pitch,roll,voltage33,voltage5,voltage12
0.10,1,0,0,102109.23,20.49,9.93,0,-0.57,0.86,6.68,1.10,0.61,-16.16,89.84507,-0.08563,0.044815,3.30,4.86,12.15
0.12,1,0,0,102131.72,20.50,8.08,0,-0.11,0.48,7.18,-0.12,7.50,-7.74,89.86092,-0.19824,0.16009,3.30,4.86,12.13
0.14,1,0,0,102100.63,20.50,10.64,0,-1.09,0.57,7.10,9.33,7.07,0.85,89.87362,-0.19941,0.234987,3.29,4.87,12.17
0.16,1,0,0,102118.77,20.50,9.14,0,-0.43,0.76,8.25,3.29,-2.07,0.67,89.93976,-0.04532,0.125465,3.30,4.87,12.17
0.19,1,0,0,102125.67,20.51,8.57,0,0.04,-0.54,8.17,-2.62,-9.51,2.20,90.06132,-0.01487,0.23195,3.30,4.87,12.17
0.21,1,0,1,102135.16,20.51,7.79,1,-0.37,0.33,7.51,7.62,-6.65,6.10,90.53642,-0.1754,0.373594,3.30,4.87,12.15
0.23,1,0,1,102123.95,20.50,8.72,0,-0.73,0.19,7.01,13.23,11.65,23.84,91.69258,-0.27292,0.78853,3.30,4.87,12.20
0.26,1,0,1,102144.67,20.50,7.01,1,-0.45,0.64,7.27,23.54,4.45,38.78,92.47964,-0.63096,0.639547,3.30,4.88,12.12
0.28,1,0,1,102123.95,20.50,8.72,0,-1.07,-0.10,5.92,-14.33,32.20,39.21,93.27746,-0.61336,0.972649,3.30,4.87,12.18
0.30,1,0,1,102123.06,20.50,8.79,0,-2.42,0.53,7.19,31.65,-5.30,40.73,93.96314,-0.60783,0.998974,3.30,4.86,12.15
0.32,1,0,1,102118.77,20.50,9.14,0,0.01,1.70,7.23,-2.80,1.16,34.21,94.18538,-0.71242,0.907621,3.30,4.86,12.18
0.34,1,0,1,102129.13,20.50,8.29,1,0.75,1.28,7.98,-12.87,14.02,10.67,94.26359,-0.81666,0.896761,3.30,4.86,12.18
0.36,1,0,1,102103.22,20.50,10.43,0,-0.38,-0.14,8.44,3.17,8.72,4.02,94.44326,-0.83899,0.994727,3.30,4.85,12.18
0.38,1,0,1,102118.77,20.50,9.14,0,-0.97,0.09,8.39,10.61,-2.07,9.45,94.46223,-0.90211,0.916469,3.30,4.87,12.17
0.40,1,0,1,102110.99,20.50,9.79,0,-1.05,0.52,7.37,-9.27,1.83,0.79,94.5185,-1.07852,0.835447,3.30,4.87,12.15
0.42,1,0,0,102103.22,20.50,10.43,0,-0.33,-0.88,7.97,-3.48,17.38,2.62,94.62468,-1.03735,0.884465,3.30,4.87,12.15
0.44,1,0,0,102098.88,20.51,10.79,0,-0.59,-0.14,8.35,8.54,-6.71,5.73,94.73442,-0.9381,0.883792,3.30,4.87,12.17
0.47,1,0,0,102092.85,20.50,11.28,0,-0.22,0.06,8.04,4.27,-4.82,3.78,94.91699,-0.94352,0.90498,3.30,4.86,12.18
0.49,1,0,0,102071.24,20.50,13.07,0,-0.34,0.12,8.51,6.16,-1.04,9.39,94.97695,-0.90423,0.891553,3.30,4.86,12.18
0.51,1,0,0,102075.55,20.49,12.71,0,-0.26,-0.01,8.19,3.29,-3.66,3.11,95.1338,-0.86928,0.945214,3.30,4.87,12.18
0.53,1,0,0,102061.76,20.50,13.85,0,-0.42,0.06,8.72,9.02,-5.91,8.23,95.25482,-0.82781,0.939463,3.30,4.86,12.18
0.55,1,0,0,102055.70,20.50,14.35,0,-0.33,0.01,8.28,3.78,-5.30,6.22,95.44016,-0.8089,0.95529,3.30,4.87,12.18
0.57,1,0,0,102060.02,20.51,14.00,0,-0.34,0.05,7.61,5.37,-4.02,9.51,95.61151,-0.74482,0.958867,3.30,4.87,12.18
0.59,1,0,0,102048.80,20.50,14.92,0,-0.39,-0.01,8.46,4.33,-8.29,8.78,95.85327,-0.69415,0.992963,3.30,4.86,12.13
0.61,1,0,0,102040.16,20.51,15.64,0,-0.35,0.06,8.00,7.01,-7.32,12.38,96.07187,-0.64094,1.002037,3.30,4.87,12.17
0.63,1,0,0,102039.28,20.51,15.71,0,-0.36,0.13,7.89,3.72,-8.54,11.16,96.31969,-0.57447,1.008217,3.30,4.87,12.05
0.65,1,0,0,102030.66,20.50,16.42,0,-0.29,-0.08,8.61,4.94,-7.38,12.56,96.7372,-0.48711,1.030456,3.30,4.87,12.18
0.68,1,0,0,102016.83,20.50,17.57,0,-0.44,0.08,7.51,3.78,-9.33,14.15,97.06327,-0.42866,1.044294,3.30,4.87,12.18
0.70,1,0,0,101992.64,20.51,18.92,0,-0.48,-0.01,7.96,4.21,-8.84,16.52,97.4041,-0.34647,1.033856,3.30,4.87,12.17
0.72,1,0,0,101997.81,20.49,19.14,0,-0.35,-0.00,7.77,2.38,-10.61,17.20,97.99143,-0.22392,1.086973,3.30,4.86,12.18
0.75,1,0,0,101989.20,20.50,19.42,0,-0.43,0.10,7.66,5.55,-11.65,19.82,98.37135,-0.15938,1.076243,3.30,4.87,12.15
0.77,1,0,0,101978.84,20.50,20.71,0,-0.40,0.04,8.82,1.95,-9.27,19.15,98.81369,-0.07523,1.105168,3.30,4.85,12.17
0.79,1,0,0,101981.43,20.50,22.21,0,-0.25,0.17,7.93,5.30,-11.59,22.32,99.29807,0.021536,1.121673,3.30,4.87,12.17
0.81,1,0,0,101968.48,20.50,21.56,0,-0.33,0.05,7.67,4.57,-12.44,24.39,99.7593,0.161736,1.160908,3.30,4.87,12.17
0.83,1,0,0,101942.56,20.50,22.85,0,-0.25,-0.20,6.40,8.11,-15.43,23.17,100.1804,0.232327,1.112232,3.30,4.86,12.17
0.85,1,0,0,101938.22,20.49,24.06,0,-0.58,-0.06,5.17,-2.80,-10.55,21.22,100.5712,0.306793,1.067073,3.30,4.87,12.17
0.87,1,0,0,101930.45,20.49,24.71,0,-0.36,-0.19,9.37,-0.61,-9.63,19.63,101.0331,0.353381,1.071975,3.30,4.86,12.18
0.89,1,0,0,101911.47,20.50,26.28,0,-0.51,0.13,10.35,2.56,-8.17,23.23,101.6443,0.368767,1.075837,3.30,4.87,12.18
0.91,1,0,0,101912.31,20.49,26.21,0,-0.60,0.18,5.31,0.91,-5.12,30.73,102.1046,0.431336,0.947433,3.30,4.86,12.18
0.93,1,0,0,101884.67,20.48,28.49,0,-0.51,-0.36,6.22,-9.15,-8.78,23.17,102.5283,0.521106,0.986231,3.30,4.87,12.23
0.95,1,0,0,101881.22,20.49,28.78,0,-0.19,0.06,8.61,6.95,-12.13,21.22,103.3188,0.534454,0.880887,3.30,4.87,12.17
0.98,1,0,0,101856.19,20.50,30.85,0,-0.40,-0.04,7.13,-4.27,-4.21,26.52,103.8889,0.52706,0.764221,3.30,4.87,12.18
1.00,1,0,0,101845.81,20.48,31.71,0,-0.51,-0.12,6.19,-9.02,-2.68,28.72,104.3824,0.529716,0.729466,3.29,4.86,12.17
1.02,1,0,0,101831.98,20.49,32.85,0,-0.29,0.11,7.11,-2.13,-4.27,24.82,104.9786,0.532042,0.679165,3.30,4.87,12.18
1.04,1,0,0,101811.25,20.48,34.57,0,-0.56,0.36,7.33,-5.61,-4.09,30.00,105.5693,0.541205,0.669034,3.30,4.87,12.17
1.06,1,0,0,101800.06,20.50,35.50,0,-0.47,0.06,6.99,0.37,-4.88,29.63,106.1429,0.510858,0.608022,3.30,4.87,12.17
1.08,1,0,0,101788.82,20.50,36.43,0,-0.29,0.04,6.16,-4.39,-0.91,28.84,106.6884,0.484181,0.599793,3.30,4.86,12.13
1.10,1,0,0,101764.63,20.49,38.43,0,-0.38,0.08,6.33,0.18,-1.46,27.38,107.3224,0.465151,0.639365,3.30,4.86,12.13
1.12,1,0,0,101759.44,20.49,38.86,0,-0.35,0.17,6.53,4.15,-2.13,31.77,107.9836,0.418028,0.641517,3.29,4.86,12.12
1.14,1,0,0,101731.81,20.48,41.15,0,-0.39,0.10,5.88,1.04,0.73,33.17,108.6196,0.381661,0.634755,3.30,4.86,12.15
1.16,1,0,0,101728.35,20.49,41.43,0,-0.42,-0.01,6.59,1.16,-0.18,31.89,109.6557,0.281646,0.687314,3.30,4.86,12.15
1.19,1,0,0,101710.22,20.49,42.94,0,-0.45,0.09,6.47,4.39,2.74,34.63,110.3625,0.216241,0.688731,3.30,4.86,12.15
1.21,1,0,1,101677.41,20.48,45.66,0,-0.41,-0.05,5.58,2.20,2.99,35.43,111.0816,0.146752,0.705278,3.30,4.86,12.02
1.23,1,0,1,101680.00,20.48,46.30,0,-0.32,-0.03,5.85,3.90,3.54,36.04,111.8066,0.074377,0.728598,3.30,4.87,12.04
1.25,1,0,1,101661.86,20.48,46.94,0,-0.41,-0.07,5.96,4.57,3.90,36.34,112.9579,-0.04475,0.764233,3.29,4.86,12.04
1.28,1,0,1,101642.85,20.48,48.52,0,-0.38,0.04,5.36,3.54,4.33,38.48,113.7258,-0.11857,0.777645,3.30,4.86,12.08
1.30,1,0,1,101640.27,20.49,48.73,0,-0.30,-0.00,5.63,3.41,4.21,38.48,114.5146,-0.19445,0.817059,3.30,4.87,12.17
1.32,1,0,1,101623.00,20.48,50.16,0,-0.35,0.13,5.36,3.96,3.96,39.57,115.3891,-0.28177,0.85457,3.30,4.87,12.18
1.34,1,0,1,101593.63,20.49,52.60,0,-0.24,0.12,5.63,4.33,5.37,43.84,116.2865,-0.35163,0.863476,3.30,4.87,12.20
1.36,1,0,1,101581.55,20.48,53.60,0,-0.30,-0.01,4.98,2.93,4.33,44.94,117.1574,-0.41824,0.879333,3.30,4.87,12.17
1.38,1,0,1,101566.00,20.48,54.89,0,-0.20,-0.04,5.80,5.06,5.55,43.60,118.0436,-0.46403,0.879672,3.30,4.86,12.18
1.40,1,0,1,101567.72,20.49,54.96,0,-0.16,-0.07,5.11,3.78,4.27,44.33,118.8849,-0.50296,0.885697,3.30,4.86,12.18
1.42,1,0,0,101559.95,20.49,55.39,0,-0.26,-0.13,5.59,4.02,2.87,42.13,120.3237,-0.57351,0.908661,3.30,4.87,12.18
1.45,1,0,0,101546.99,20.49,57.33,0,-0.14,0.12,5.01,3.29,2.26,48.05,121.3161,-0.61142,0.897599,3.30,4.86,12.18
1.47,1,0,0,101523.67,20.49,58.40,0,-0.22,-0.01,4.83,1.65,2.50,49.63,122.3286,-0.60968,0.89145,3.30,4.87,12.18
1.49,1,0,0,101509.00,20.48,59.62,0,-0.22,0.02,4.54,1.65,-1.95,50.73,123.3714,-0.61119,0.858662,3.30,4.87,12.18
1.51,1,0,0,101498.64,20.48,60.48,0,-0.11,-0.05,2.50,-0.06,-0.18,52.13,124.4069,-0.52305,0.835684,3.30,4.87,12.18
1.53,1,0,0,101490.88,20.48,61.34,0,0.02,-0.04,2.08,0.67,-4.76,51.83,125.4701,-0.55137,0.859582,3.30,4.87,12.18
1.55,1,0,0,101448.55,20.49,64.64,0,-0.15,0.08,1.70,0.24,-0.18,53.23,126.5633,-0.5488,0.831368,3.30,4.87,12.17
1.57,1,0,0,101451.14,20.48,64.42,0,-0.08,0.02,1.57,-1.59,-2.80,54.70,127.6769,-0.49225,0.780706,3.30,4.87,12.13
1.59,1,0,0,101417.45,20.49,67.22,0,-0.05,-0.03,1.52,-1.52,-5.37,55.73,128.894,-0.47452,0.81257,3.30,4.86,12.18
1.61,1,0,0,101394.14,20.48,69.16,0,-0.15,0.25,1.21,-1.89,-2.50,60.91,130.0717,-0.36541,0.809155,3.30,4.86,12.18
1.63,1,0,0,101365.64,20.49,71.52,0,0.08,0.03,1.15,-1.10,-4.51,58.90,131.1931,-0.34473,0.812977,3.30,4.86,12.18
1.65,1,0,0,101344.92,20.49,73.24,0,-0.14,0.10,1.10,-2.56,-4.63,56.16,132.3626,-0.31933,0.834705,3.30,4.87,12.18
1.67,1,0,0,101323.34,20.50,75.04,0,-0.06,0.12,0.98,-2.68,-3.05,58.54,134.1184,-0.30187,0.793735,3.30,4.86,12.18
1.70,1,0,0,101281.03,20.48,78.55,0,-0.05,-0.00,0.74,-1.16,-3.72,58.60,135.3179,-0.2951,0.814201,3.30,4.87,12.04
1.72,1,0,0,101277.56,20.48,78.84,0,-0.06,0.06,0.61,-1.52,-2.68,60.06,137.0735,-0.31109,0.820861,3.30,4.87,12.07
1.75,1,0,0,101247.35,20.48,81.35,0,-0.15,0.02,0.53,-0.30,-2.01,58.60,138.2776,-0.21337,0.833828,3.30,4.86,12.05
1.77,1,0,0,101229.22,20.48,82.86,0,0.03,0.02,0.43,-0.30,-3.41,60.24,139.4811,-0.21413,0.840371,3.30,4.87,12.04
1.79,1,0,0,101215.39,20.49,84.01,0,-0.05,0.04,0.24,-2.44,-2.07,60.24,140.6697,-0.19342,0.882003,3.30,4.87,12.02
1.81,1,0,0,101180.88,20.48,86.88,0,-0.04,0.14,0.26,-0.79,-1.59,59.51,141.8509,-0.18369,0.894298,3.30,4.87,12.12
1.83,1,0,0,101151.50,20.48,89.33,0,-0.24,0.20,0.13,-2.13,-2.80,59.15,143.078,-0.17583,0.864084,3.30,4.87,12.13
1.85,1,0,0,101146.32,20.48,89.76,0,-0.07,-0.06,0.19,-0.12,-2.32,61.40,144.2368,-0.13813,0.913758,3.30,4.87,12.15
1.87,1,0,0,101125.59,20.48,91.48,0,-0.01,0.17,-0.11,-0.06,-2.26,58.05,145.4432,-0.05622,0.94327,3.30,4.87,12.15
1.89,1,0,0,101096.22,20.49,93.93,0,0.09,0.05,-0.05,0.37,-2.13,60.37,146.6301,-0.08315,0.946534,3.30,4.87,12.15
1.91,1,0,0,101075.50,20.49,95.65,0,-0.17,0.03,-0.07,-0.67,0.00,59.39,147.7856,-0.02197,0.998926,3.30,4.87,12.12
1.93,1,0,0,101039.23,20.49,98.67,0,0.06,0.10,-0.08,1.04,-1.77,57.87,149.4736,-0.09957,0.981165,3.30,4.87,12.12
1.96,1,0,0,101027.16,20.48,99.68,0,-0.09,-0.05,-0.44,0.43,2.68,56.22,150.6495,-0.11799,0.973609,3.30,4.87,11.94
1.98,1,0,0,100996.08,20.48,102.27,0,-0.10,-0.02,-0.22,-0.37,-0.85,58.84,151.8048,-0.06428,1.012148,3.30,4.87,11.89
2.00,1,0,0,100992.61,20.49,102.56,0,0.08,0.09,-0.20,0.00,-0.37,57.80,152.9123,0.009642,1.044675,3.30,4.87,11.89
2.02,1,0,0,100967.59,20.47,105.94,0,0.13,-0.06,-0.15,5.00,-1.04,55.43,154.0791,-0.02511,1.087012,3.30,4.86,12.17
2.04,1,0,0,100932.20,20.47,107.59,0,-0.08,0.09,-0.17,0.61,2.62,58.35,155.2584,-0.0197,1.162061,3.30,4.86,12.13
2.06,1,0,0,100917.50,20.48,109.47,0,-0.00,0.22,-0.35,2.74,1.77,59.02,156.4222,-0.01941,1.213987,3.30,4.87,12.20
2.08,1,0,0,100905.41,20.48,109.83,0,-0.08,0.05,-0.04,2.62,-1.59,58.35,157.545,0.002192,1.164393,3.30,4.87,12.17
2.10,1,0,0,100888.98,20.49,111.41,0,0.01,-0.09,-0.18,-0.30,0.73,56.04,158.7291,0.022499,1.217001,3.30,4.87,12.17
2.12,2,0,0,100873.45,20.49,112.49,0,0.03,0.07,-0.56,0.79,1.89,59.21,159.9079,0.033358,1.268232,3.30,4.87,12.18
2.14,2,0,0,100848.43,20.48,114.80,0,-0.02,0.04,-0.60,0.67,0.12,59.02,161.0876,0.099106,1.322035,3.30,4.86,12.17
2.16,2,0,0,100834.59,20.49,115.73,0,0.09,0.09,-0.39,1.89,-0.85,59.09,162.8531,0.153464,1.393293,3.30,4.87,12.18
2.19,2,0,0,100811.28,20.49,117.68,0,0.01,0.14,-0.30,0.30,-0.49,58.96,164.0216,0.235129,1.426714,3.30,4.87,12.18
2.21,2,0,1,100773.31,20.48,120.85,0,0.03,0.01,-0.29,0.85,-1.52,58.54,165.188,0.321519,1.467065,3.30,4.88,12.18
2.23,2,0,1,100762.06,20.49,121.79,0,0.05,0.03,-0.33,1.46,-2.13,58.48,166.9187,0.371891,1.512573,3.30,4.86,12.18
2.26,2,0,1,100713.75,20.47,125.82,0,-0.00,0.11,-0.43,-0.98,-0.18,57.80,168.053,0.449881,1.510347,3.30,4.86,12.13
2.28,2,0,1,100718.91,20.48,125.39,0,0.02,-0.02,-0.45,-0.12,-0.12,56.71,169.1752,0.527512,1.455428,3.30,4.87,12.13
2.30,2,0,1,100695.60,20.48,127.34,0,0.02,-0.04,-0.44,-2.07,-0.85,56.04,170.3149,0.559477,1.490928,3.30,4.86,12.18
2.32,2,0,1,100674.88,20.48,129.07,0,-0.03,0.05,-0.37,0.18,-1.77,57.20,171.4391,0.625781,1.520236,3.29,4.86,12.17
2.34,2,0,1,100641.20,20.48,131.88,0,0.03,0.06,-0.36,-0.18,-1.65,56.40,172.5461,0.713457,1.529574,3.30,4.87,12.18
2.36,2,0,1,100629.96,20.49,132.82,0,0.07,0.06,-0.29,-1.10,-2.44,55.55,173.6603,0.819376,1.493457,3.30,4.87,12.17
2.38,2,0,1,100594.59,20.48,135.78,0,-0.00,-0.02,-0.32,-0.55,-3.23,55.79,174.7779,0.914119,1.505397,3.30,4.87,12.18
2.40,2,0,1,100591.11,20.49,136.07,0,0.09,0.10,-0.37,-0.73,-3.48,56.16,175.8991,0.990559,1.538961,3.30,4.87,12.18
2.42,2,0,0,100562.61,20.49,138.45,0,0.01,0.06,-0.35,0.67,-3.41,56.40,177.5608,1.156887,1.521579,3.30,4.87,12.18
2.45,2,0,0,100538.45,20.50,140.47,0,0.02,-0.01,-0.36,-0.43,-3.54,55.61,178.6588,1.25168,1.527191,3.30,4.87,12.18
2.47,2,0,0,100512.55,20.50,142.64,0,0.05,0.06,-0.35,-0.79,-3.54,55.24,179.7441,1.341048,1.535591,3.30,4.87,12.18
2.49,2,0,0,100497.00,20.50,143.94,0,0.02,0.04,-0.40,-0.73,-3.54,54.63,-179.173,1.451957,1.527634,3.30,4.87,12.18
2.51,2,0,0,100465.06,20.50,146.61,0,0.06,0.03,-0.31,-0.67,-4.15,54.51,-178.093,1.548736,1.534608,3.30,4.86,12.18
2.53,2,0,0,100459.88,20.50,147.04,0,0.03,0.05,-0.29,-0.37,-4.09,54.39,-177.025,1.630577,1.544799,3.30,4.86,12.17
2.55,2,0,0,100421.89,20.50,150.22,0,0.01,0.05,-0.33,-0.37,-3.48,53.84,-175.98,1.729697,1.534551,3.30,4.87,12.20
2.57,2,0,0,100408.94,20.50,151.31,0,0.06,0.05,-0.32,-1.04,-3.48,52.62,-174.941,1.788774,1.540893,3.30,4.87,12.18
2.59,2,0,0,100386.48,20.49,153.19,0,-0.02,0.04,-0.27,-0.85,-3.41,52.44,-173.89,1.810747,1.529822,3.30,4.87,12.17
2.61,2,0,0,100375.27,20.50,154.12,0,-0.04,0.00,-0.34,-1.04,-2.74,52.87,-172.855,1.899597,1.527307,3.30,4.86,12.15
2.63,2,0,0,100345.91,20.50,156.58,0,0.04,0.06,-0.32,-0.61,-3.17,52.20,-171.328,2.005529,1.525308,3.30,4.86,12.17
2.66,2,0,0,100333.83,20.50,157.60,0,0.00,0.05,-0.37,-1.10,-2.74,51.34,-170.32,2.071548,1.518898,3.30,4.87,12.17
2.68,2,0,0,100293.25,20.49,161.00,0,-0.00,0.04,-0.39,-1.34,-1.95,50.85,-169.328,2.123973,1.509363,3.30,4.87,12.15
2.70,2,0,0,100269.94,20.49,162.95,0,-0.01,0.07,-0.44,-1.89,-1.52,50.00,-168.334,2.20675,1.487614,3.30,4.87,11.94
2.72,2,0,0,100253.54,20.50,164.32,0,0.04,0.05,-0.31,-1.83,-2.38,50.12,-166.848,2.330725,1.420742,3.29,4.87,11.94
2.75,2,0,0,100231.95,20.50,166.13,0,0.02,0.00,-0.35,-2.26,-1.28,49.82,-165.863,2.374063,1.404631,3.30,4.87,11.78
2.77,2,0,0,100221.59,20.50,167.00,0,-0.02,0.03,-0.39,-2.13,-0.79,49.63,-164.894,2.447285,1.374158,3.30,4.87,11.84
2.79,2,0,0,100200.01,20.49,168.81,0,0.03,0.03,-0.38,-1.89,-1.22,48.84,-163.916,2.510322,1.359121,3.30,4.87,11.79
2.81,2,0,0,100189.66,20.49,170.77,0,0.02,0.06,-0.39,-1.16,-1.28,49.33,-162.938,2.577467,1.333698,3.30,4.86,11.89
2.83,2,0,0,100157.71,20.50,172.36,0,0.02,0.03,-0.39,-1.34,-0.85,49.27,-161.967,2.627683,1.303648,3.30,4.86,11.97
2.85,2,0,0,100143.03,20.49,173.59,0,0.04,0.10,-0.38,-2.56,-0.24,48.96,-160.993,2.650312,1.289582,3.30,4.87,12.02
2.87,2,0,0,100122.28,20.51,175.33,0,-0.03,0.06,-0.39,-1.59,0.30,49.02,-160.016,2.723759,1.254702,3.30,4.87,12.00
2.89,2,0,0,100118.00,20.50,175.69,0,0.04,0.01,-0.35,-0.49,-0.67,49.15,-159.031,2.784707,1.222373,3.30,4.87,12.00
2.91,2,0,0,100087.78,20.50,178.23,0,0.02,0.02,-0.42,-1.04,0.06,49.57,-158.041,2.835611,1.206711,3.30,4.87,12.08
2.93,2,0,0,100061.88,20.50,180.40,0,0.03,0.08,-0.39,-0.55,-0.24,49.88,-156.534,2.909885,1.179599,3.30,4.86,12.07
2.96,2,0,0,100046.34,20.50,181.71,0,0.00,0.03,-0.40,-0.37,0.24,50.55,-155.526,2.965853,1.154272,3.30,4.87,12.07
2.98,2,0,0,100037.67,20.51,182.43,0,0.08,0.06,-0.41,0.12,0.49,50.67,-154.519,3.038344,1.124323,3.30,4.87,12.05
3.00,2,0,0,100004.91,20.50,185.18,0,0.05,0.02,-0.39,0.55,-0.79,50.67,-153.524,3.11567,1.081357,3.30,4.86,11.89
3.02,2,0,0,99998.00,20.49,185.76,0,0.06,0.01,-0.33,-0.06,-1.16,50.06,-152.507,3.16632,1.059545,3.30,4.86,11.91
3.04,2,0,0,99967.78,20.50,188.30,0,0.07,0.11,-0.36,-0.12,0.00,51.22,-151.493,3.230994,0.990766,3.30,4.85,12.10
3.06,2,0,0,99958.29,20.50,189.10,0,0.03,-0.01,-0.40,-1.52,0.12,50.98,-150.482,3.291362,0.938699,3.30,4.86,12.07
3.08,2,0,0,99929.80,20.50,191.50,0,0.05,0.01,-0.43,-0.61,0.30,50.79,-149.494,3.358918,0.862346,3.30,4.87,12.12
3.10,2,0,0,99916.85,20.50,192.58,0,0.04,-0.02,-0.40,-1.52,-0.43,49.70,-148.474,3.416998,0.793452,3.30,4.86,12.15
3.12,2,0,0,99895.27,20.50,194.40,0,0.04,0.01,-0.37,-2.01,0.30,51.34,-147.451,3.479259,0.698767,3.30,4.87,11.99
3.14,2,0,0,99882.33,20.50,195.48,0,0.02,-0.02,-0.34,-2.50,-0.18,51.40,-145.945,3.568165,0.576918,3.30,4.86,12.18
3.17,2,0,0,99875.41,20.50,196.07,0,0.09,0.02,-0.37,-2.93,-0.12,50.67,-144.935,3.617973,0.485124,3.30,4.87,12.17
3.19,2,0,0,99843.48,20.50,198.75,0,0.04,-0.01,-0.40,-2.74,0.73,50.79,-143.918,3.664504,0.366071,3.30,4.87,12.17
3.21,2,0,1,99829.63,20.51,199.92,0,0.08,-0.06,-0.37,-3.60,0.49,51.10,-142.875,3.717948,0.25566,3.30,4.87,12.17
3.23,2,0,1,99810.67,20.50,201.51,0,0.02,0.00,-0.39,-4.63,0.00,52.68,-141.379,3.782336,0.110774,3.30,4.87,12.18
3.26,2,0,1,99796.86,20.50,203.11,0,0.02,0.02,-0.44,-4.51,0.61,50.43,-140.378,3.834492,-0.01568,3.30,4.85,12.18
3.28,2,0,1,99774.42,20.50,204.56,0,0.07,-0.03,-0.34,-4.82,-0.49,50.55,-139.368,3.886939,-0.13712,3.30,4.87,12.12
3.30,2,0,1,99762.34,20.49,206.67,0,0.07,-0.01,-0.33,-4.88,-0.61,51.10,-138.329,3.924049,-0.25142,3.30,4.86,12.18
3.32,2,0,1,99739.03,20.49,207.54,0,0.04,0.05,-0.39,-6.46,0.18,52.74,-137.333,3.962032,-0.39145,3.30,4.87,12.18
3.34,2,0,1,99720.03,20.50,209.14,0,0.05,-0.02,-0.36,-6.04,0.30,50.37,-136.321,3.999432,-0.53056,3.30,4.86,12.15
3.36,2,0,1,99694.97,20.51,211.25,0,0.07,-0.02,-0.32,-5.85,0.12,51.22,-135.298,4.032751,-0.64691,3.30,4.87,12.18
3.38,2,0,1,99694.14,20.50,211.75,0,0.04,0.05,-0.41,-6.28,0.00,52.01,-134.278,4.052854,-0.76875,3.30,4.87,12.18
3.40,2,0,1,99669.97,20.50,213.35,0,-0.01,0.03,-0.46,-6.52,1.22,51.77,-133.285,4.08162,-0.90199,3.30,4.87,12.23
3.42,2,0,0,99652.70,20.50,214.81,0,0.06,0.03,-0.35,-7.07,0.37,50.55,-131.756,4.119498,-1.10927,3.30,4.87,12.18
3.45,2,0,0,99643.17,20.51,215.61,0,0.02,0.01,-0.42,-6.28,0.49,51.71,-130.745,4.134648,-1.22434,3.30,4.87,12.15
3.47,2,0,0,99615.59,20.50,217.93,0,0.04,0.07,-0.36,-6.59,0.49,51.52,-129.761,4.158043,-1.37105,3.30,4.87,12.20
3.49,2,0,0,99597.41,20.51,219.47,0,0.07,0.00,-0.35,-6.89,0.18,50.00,-128.772,4.166582,-1.49526,3.30,4.87,12.17
3.51,2,0,0,99587.96,20.50,220.26,0,0.08,0.05,-0.28,-6.52,1.22,50.37,-127.757,4.171631,-1.60647,3.30,4.85,12.10
3.53,2,0,0,99572.42,20.50,221.57,0,0.08,0.09,-0.39,-5.79,0.98,51.65,-126.782,4.180815,-1.72063,3.30,4.87,11.99
3.55,2,0,0,99559.48,20.50,222.66,0,0.06,0.08,-0.38,-6.34,0.49,49.76,-125.801,4.17366,-1.9019,3.30,4.86,12.13
3.57,2,0,0,99533.58,20.50,224.85,0,-0.01,-0.03,-0.36,-7.26,0.67,49.51,-124.81,4.17579,-2.02631,3.30,4.87,12.10
3.59,2,0,0,99517.19,20.50,226.23,0,0.06,0.05,-0.32,-6.34,0.98,50.55,-123.836,4.173776,-2.15855,3.30,4.86,12.18
3.61,2,0,0,99494.73,20.50,228.12,0,0.04,0.02,-0.39,-5.67,1.40,49.51,-122.863,4.185938,-2.27436,3.30,4.86,12.17
3.63,2,0,0,99497.33,20.50,227.90,0,0.09,0.05,-0.32,-5.24,-0.30,49.63,-121.898,4.194801,-2.40802,3.30,4.87,12.18
3.65,2,0,0,99467.98,20.50,230.38,0,0.06,0.02,-0.33,-5.91,-0.06,49.21,-120.452,4.195496,-2.62772,3.30,4.87,12.17
3.68,2,0,0,99450.72,20.50,231.83,0,0.01,-0.00,-0.35,-5.43,0.06,48.96,-119.5,4.198756,-2.72443,3.30,4.87,12.18
3.70,2,0,0,99432.59,20.50,233.58,0,0.12,0.11,-0.33,-4.57,-0.49,48.66,-118.569,4.205236,-2.83467,3.30,4.87,12.20
3.72,2,0,0,99415.34,20.49,234.82,0,0.05,0.04,-0.31,-4.57,-0.43,47.56,-117.63,4.203636,-2.95462,3.30,4.87,12.12
3.74,2,0,0,99409.28,20.50,236.21,0,0.04,0.03,-0.33,-4.82,0.18,47.93,-116.212,4.183351,-3.07931,3.30,4.86,12.12
3.77,2,0,0,99381.68,20.49,237.66,0,0.06,0.10,-0.28,-3.96,0.24,48.29,-115.273,4.178355,-3.18513,3.30,4.87,12.20
3.79,2,0,0,99365.27,20.50,239.27,0,0.05,0.05,-0.33,-4.27,0.06,47.99,-114.34,4.175883,-3.279,3.30,4.86,11.55
3.81,2,0,0,99351.46,20.50,240.21,0,0.10,0.07,-0.30,-3.60,-0.43,47.68,-113.42,4.165408,-3.39192,3.30,4.87,11.84
3.83,2,0,0,99336.78,20.50,241.67,0,0.07,0.04,-0.32,-4.57,0.43,47.07,-112.488,4.141324,-3.47493,3.30,4.87,12.15
3.85,2,0,0,99317.75,20.51,243.06,0,0.02,0.10,-0.32,-4.57,0.24,47.68,-111.565,4.12196,-3.57848,3.30,4.87,12.10
3.87,2,0,0,99304.80,20.51,245.03,0,0.02,0.06,-0.36,-4.57,0.85,47.26,-110.64,4.091384,-3.71953,3.30,4.87,12.10
3.89,2,0,0,99293.59,20.51,245.10,0,0.00,-0.02,-0.34,-3.60,0.12,46.77,-109.722,4.073676,-3.80973,3.30,4.87,12.00
3.91,2,0,0,99270.28,20.51,247.07,0,0.05,0.08,-0.29,-4.27,0.00,47.07,-108.808,4.054044,-3.92076,3.30,4.86,12.07
3.93,2,0,0,99258.19,20.51,248.09,0,0.05,0.03,-0.33,-3.78,0.49,46.71,-107.909,4.026946,-4.04566,3.30,4.87,12.13
3.95,2,0,0,99244.39,20.51,249.26,0,0.05,0.00,-0.36,-3.90,0.73,45.85,-106.532,3.990494,-4.23786,3.30,4.87,12.10
3.98,2,0,0,99223.67,20.51,251.01,0,0.03,0.02,-0.33,-4.63,0.30,46.95,-105.621,3.96391,-4.35551,3.30,4.87,12.15
4.00,2,0,0,99204.72,20.50,252.61,0,0.00,0.04,-0.33,-4.33,0.43,46.71,-104.731,3.934505,-4.47792,3.30,4.87,12.07
4.02,2,0,0,99175.39,20.50,255.09,0,0.05,0.02,-0.32,-4.51,0.61,45.61,-103.817,3.897121,-4.60026,3.30,4.86,11.86
4.04,2,0,0,99171.89,20.51,255.39,0,0.04,0.01,-0.31,-3.78,0.79,46.71,-102.903,3.852866,-4.74065,3.30,4.87,11.91
4.06,2,0,0,99152.03,20.51,257.06,0,0.02,-0.00,-0.32,-4.63,0.67,46.65,-102.008,3.803529,-4.87804,3.30,4.86,11.94
4.08,2,0,0,99136.48,20.51,258.38,0,0.03,-0.00,-0.31,-4.76,1.28,45.73,-101.121,3.759634,-5.0054,3.30,4.87,11.99
4.10,2,0,0,99115.78,20.51,260.13,0,0.02,0.03,-0.33,-4.82,1.10,45.55,-100.221,3.694352,-5.15768,3.30,4.87,11.94
4.12,2,0,0,99109.75,20.51,260.64,0,-0.00,0.00,-0.34,-5.30,1.40,45.85,-99.3445,3.644578,-5.27384,3.30,4.86,11.94
4.14,2,0,0,99086.44,20.51,262.61,0,0.01,0.05,-0.31,-5.18,1.59,45.18,-98.4654,3.59163,-5.40789,3.30,4.86,11.97
4.16,2,0,0,99077.79,20.52,263.35,0,0.01,0.02,-0.30,-4.76,0.91,45.06,-97.5985,3.509847,-5.55392,3.30,4.87,12.12
4.18,2,0,0,99065.73,20.51,264.37,0,0.01,-0.05,-0.28,-4.63,1.77,44.02,-96.2755,3.384884,-5.76856,3.29,4.87,12.10
4.21,2,0,1,99040.69,20.51,266.49,0,0.02,-0.02,-0.32,-4.88,2.38,45.00,-95.3932,3.287742,-5.91762,3.30,4.87,11.94
4.23,2,0,1,99038.09,20.51,267.36,0,-0.01,0.01,-0.34,-5.24,2.87,44.94,-94.1166,3.166142,-6.13555,3.30,4.87,11.94
4.26,2,0,1,99013.94,20.51,268.75,0,0.02,0.01,-0.30,-6.10,2.56,43.78,-93.2632,3.061589,-6.28442,3.30,4.86,12.02
4.28,2,0,1,99001.84,20.51,270.21,0,0.00,0.00,-0.32,-5.67,3.35,43.60,-92.4164,2.962628,-6.42608,3.30,4.87,11.91
4.30,2,0,1,98986.31,20.51,271.09,0,0.01,0.02,-0.30,-5.85,3.66,43.54,-91.5707,2.868034,-6.54567,3.30,4.85,11.94
4.32,2,0,1,98971.69,20.50,272.55,0,0.01,0.06,-0.31,-6.28,4.21,43.84,-90.7352,2.745455,-6.69893,3.30,4.87,12.08
4.34,2,0,1,98955.24,20.51,273.72,0,0.00,-0.06,-0.28,-6.22,3.60,42.56,-89.8889,2.611239,-6.85407,3.30,4.87,12.05
4.36,2,0,1,98942.30,20.51,275.48,0,-0.01,-0.01,-0.33,-6.52,4.51,43.17,-89.0478,2.486186,-6.99811,3.30,4.87,12.08
4.38,2,0,1,98929.35,20.51,275.91,0,0.01,0.01,-0.27,-6.22,4.82,43.23,-88.22,2.366571,-7.13568,3.30,4.87,12.05
4.40,2,0,1,98910.38,20.51,277.52,0,0.03,0.00,-0.28,-6.10,4.63,42.68,-87.3843,2.242361,-7.26303,3.30,4.87,12.07
4.42,2,0,0,98900.87,20.51,278.33,0,0.03,0.02,-0.29,-5.67,5.24,43.17,-86.5422,2.082246,-7.41091,3.30,4.87,12.12
4.44,2,0,0,98887.92,20.51,280.30,0,-0.02,-0.01,-0.30,-6.40,5.37,42.80,-85.3167,1.887492,-7.59556,3.30,4.87,12.10
4.47,2,0,0,98871.53,20.51,280.81,0,0.03,0.04,-0.32,-6.10,5.85,42.38,-84.5119,1.767268,-7.70455,3.30,4.87,12.20
4.49,2,0,0,98866.30,20.52,281.26,0,0.04,0.03,-0.24,-5.49,5.18,41.83,-83.7127,1.635306,-7.826,3.29,4.87,12.17
4.51,2,0,0,98846.50,20.51,282.94,0,0.05,0.02,-0.31,-6.10,5.73,41.52,-82.8963,1.477549,-7.9484,3.30,4.87,12.20
4.53,2,0,0,98836.14,20.51,283.82,0,0.01,0.01,-0.29,-5.12,6.16,41.89,-82.0998,1.344795,-8.05011,3.30,4.87,12.18
4.55,2,0,0,98820.61,20.51,285.13,0,0.06,0.02,-0.24,-5.24,5.98,41.46,-81.3177,1.205065,-8.1697,3.30,4.86,12.18
4.57,2,0,0,98799.05,20.51,286.96,0,0.05,0.01,-0.29,-6.16,5.91,40.67,-80.5191,1.056155,-8.29076,3.29,4.88,12.20
4.59,2,0,0,98797.30,20.51,287.11,0,0.02,0.05,-0.32,-6.40,6.16,41.46,-79.724,0.900848,-8.39865,3.29,4.87,12.18
4.61,2,0,0,98786.03,20.52,288.07,0,0.03,0.03,-0.29,-5.18,6.65,41.22,-78.927,0.749574,-8.50634,3.30,4.87,12.18
4.63,2,0,0,98778.33,20.51,288.72,0,0.05,0.00,-0.27,-5.30,6.04,41.34,-78.1274,0.592162,-8.60869,3.30,4.87,12.18
4.65,2,0,0,98763.64,20.51,289.96,0,0.04,0.02,-0.32,-4.82,6.22,41.40,-77.3429,0.453524,-8.67945,3.30,4.87,12.13
4.67,2,0,0,98745.52,20.51,291.50,0,0.05,0.06,-0.25,-4.76,6.16,40.98,-76.1756,0.209921,-8.82887,3.30,4.87,12.17
4.70,2,0,0,98728.25,20.52,292.97,0,0.04,-0.01,-0.28,-4.70,6.22,40.24,-75.396,0.077031,-8.86933,3.30,4.86,12.07
4.72,2,0,0,98714.45,20.51,294.14,0,0.07,0.08,-0.24,-3.90,5.49,40.61,-74.6214,-0.08685,-8.96383,3.29,4.86,12.05
4.74,2,0,0,98706.69,20.51,294.80,0,0.03,-0.01,-0.28,-4.39,5.61,39.94,-73.8404,-0.23957,-9.04362,3.31,4.86,12.00
4.76,2,0,0,98692.00,20.52,296.04,0,0.04,0.04,-0.28,-4.15,5.73,40.61,-72.6684,-0.477,-9.17384,3.30,4.87,11.91
4.79,2,0,0,98682.53,20.51,296.85,0,0.05,0.05,-0.34,-5.06,6.10,40.73,-71.8808,-0.65354,-9.25948,3.30,4.87,11.99
4.81,2,0,0,98664.41,20.51,298.39,0,0.02,0.01,-0.30,-4.09,5.61,40.49,-71.126,-0.80271,-9.33309,3.30,4.87,12.07
4.83,2,0,0,98651.40,20.52,299.49,0,0.05,0.01,-0.23,-3.96,5.12,39.33,-70.3645,-0.94961,-9.40548,3.30,4.87,12.17
4.85,2,0,0,98640.22,20.52,300.44,0,0.05,0.03,-0.25,-4.33,4.94,39.76,-69.5934,-1.09602,-9.46026,3.30,4.87,12.07
4.87,2,0,0,98622.09,20.52,301.98,0,0.09,0.03,-0.27,-3.72,5.43,40.37,-68.8039,-1.29108,-9.53484,3.30,4.87,12.13
4.89,2,0,0,98618.66,20.51,303.59,0,0.00,0.04,-0.26,-4.02,5.24,40.12,-68.0638,-1.44702,-9.60094,3.30,4.87,12.12
4.91,2,0,0,98600.53,20.51,303.81,0,0.05,0.00,-0.26,-3.54,4.88,38.48,-67.3108,-1.60113,-9.66971,3.30,4.86,12.05
4.93,2,0,0,98586.67,20.52,305.21,0,0.05,0.03,-0.28,-4.27,4.70,39.27,-66.5441,-1.77266,-9.73036,3.30,4.87,12.13
4.95,2,0,0,98577.23,20.51,305.79,0,0.03,0.05,-0.26,-3.78,5.49,39.76,-65.7793,-1.94625,-9.79421,3.30,4.87,12.15
4.97,2,0,0,98565.96,20.52,306.75,0,0.02,0.01,-0.26,-3.54,4.27,39.33,-65.0282,-2.1299,-9.85579,3.29,4.87,12.13
4.99,2,0,0,98547.02,20.52,308.36,0,0.01,-0.00,-0.27,-3.48,4.76,38.48,-63.8989,-2.39258,-9.95332,3.30,4.87,12.13
5.02,2,0,0,98527.97,20.53,309.98,0,0.03,0.01,-0.26,-4.15,4.76,38.96,-63.1532,-2.54829,-10.0084,3.30,4.87,12.13
5.04,2,0,0,98515.10,20.51,311.07,0,0.06,0.02,-0.26,-4.09,4.39,39.02,-62.4131,-2.71954,-10.0546,3.30,4.87,11.99
5.06,2,0,0,98509.00,20.52,311.59,0,0.03,0.01,-0.23,-2.80,4.45,38.29,-61.6662,-2.88418,-10.0998,3.30,4.87,11.89
5.08,2,0,0,98499.56,20.51,312.39,0,0.04,0.03,-0.23,-3.35,4.45,38.90,-60.9413,-3.05665,-10.1499,3.30,4.86,11.89
5.10,2,0,0,98484.03,20.51,313.71,0,0.05,0.01,-0.28,-3.60,5.12,37.80,-60.1809,-3.25087,-10.1963,3.30,4.87,11.94
5.12,2,0,0,98481.45,20.51,313.93,0,0.02,0.02,-0.27,-3.48,4.94,39.09,-59.4617,-3.41198,-10.2449,3.30,4.87,12.13
5.14,2,0,0,98468.50,20.51,315.04,0,0.06,-0.01,-0.22,-4.09,4.51,37.74,-58.7245,-3.61649,-10.2946,3.30,4.87,12.15
5.16,2,0,0,98451.16,20.53,316.51,0,-0.01,-0.02,-0.27,-4.27,5.12,37.68,-58.0003,-3.79453,-10.3464,3.29,4.87,12.12
5.18,2,0,0,98447.79,20.51,316.80,0,0.04,-0.00,-0.25,-4.45,4.63,37.74,-56.9341,-4.07543,-10.4317,3.30,4.87,12.12
5.21,2,0,1,98427.93,20.52,318.49,0,0.02,-0.01,-0.24,-5.06,4.63,36.83,-56.2121,-4.26962,-10.4801,3.30,4.88,11.99
5.23,2,0,1,98416.72,20.51,319.44,0,0.02,0.00,-0.26,-4.63,4.76,37.32,-55.5087,-4.45664,-10.5359,3.30,4.87,12.02
5.25,2,0,1,98393.42,20.51,321.42,0,0.03,-0.00,-0.24,-5.37,4.76,36.65,-54.4255,-4.79541,-10.6043,3.30,4.87,11.94
5.28,2,0,1,98387.33,20.52,321.94,0,-0.01,0.02,-0.27,-5.49,5.91,36.77,-53.7159,-4.99892,-10.6488,3.30,4.87,11.84
5.30,2,0,1,98382.14,20.52,322.38,0,0.02,0.01,-0.25,-5.06,5.18,36.71,-53.0007,-5.22053,-10.6894,3.30,4.87,11.88
5.32,2,0,1,98374.38,20.52,323.04,0,0.02,0.04,-0.24,-5.37,6.16,36.77,-52.302,-5.4535,-10.7316,3.30,4.87,12.08
5.34,2,0,1,98356.25,20.52,324.59,0,-0.01,0.02,-0.25,-5.91,6.46,35.61,-51.6136,-5.67131,-10.7702,3.30,4.87,12.18
5.36,2,0,1,98351.08,20.52,325.03,0,0.02,0.00,-0.23,-5.00,6.65,35.79,-50.9124,-5.88834,-10.7973,3.30,4.87,12.18
5.38,2,0,1,98338.13,20.52,326.13,0,0.04,0.06,-0.24,-5.55,6.71,36.28,-50.2476,-6.09339,-10.8324,3.30,4.87,12.17
5.40,2,0,1,98319.20,20.52,327.74,0,0.05,-0.00,-0.24,-4.88,6.95,35.12,-49.56,-6.33379,-10.8552,3.30,4.87,12.18
5.42,2,0,0,98320.02,20.52,328.11,0,-0.01,0.00,-0.24,-4.76,7.32,35.24,-48.8822,-6.56194,-10.8758,3.30,4.87,12.18
5.44,2,0,0,98302.73,20.53,329.14,0,0.03,0.03,-0.21,-4.45,7.44,35.24,-48.2319,-6.78183,-10.9064,3.29,4.87,12.20
5.46,2,0,0,98304.48,20.52,329.88,0,0.04,-0.01,-0.23,-4.94,7.80,34.33,-47.1963,-7.17055,-10.9065,3.30,4.87,12.20
5.49,2,0,0,98289.80,20.53,330.24,0,0.01,0.04,-0.19,-4.33,8.35,35.00,-46.5213,-7.42563,-10.9078,3.30,4.87,12.18
5.51,2,0,0,98278.59,20.52,331.86,0,0.02,0.04,-0.23,-4.09,8.60,34.57,-45.867,-7.67268,-10.9141,3.30,4.87,12.20
5.53,2,0,0,98261.39,20.51,332.66,0,0.03,0.04,-0.22,-4.45,8.60,33.78,-45.2045,-7.92656,-10.9129,3.30,4.87,12.18
5.55,2,0,0,98257.06,20.52,333.25,0,0.03,0.04,-0.26,-4.02,8.84,34.15,-44.5646,-8.16748,-10.9096,3.30,4.87,12.18
5.57,2,0,0,98239.76,20.52,334.51,0,0.04,0.02,-0.21,-3.29,9.15,33.60,-43.8957,-8.43179,-10.8915,3.30,4.87,12.20
5.59,2,0,0,98237.17,20.52,334.73,0,0.03,0.05,-0.22,-3.78,9.39,34.15,-43.2682,-8.6726,-10.8714,3.30,4.86,12.18
5.61,2,0,0,98216.46,20.52,336.49,0,0.05,0.04,-0.24,-2.50,9.15,32.74,-42.6171,-8.93224,-10.8362,3.30,4.87,12.17
5.63,2,0,0,98213.88,20.52,336.71,0,0.04,0.06,-0.24,-2.80,9.45,33.17,-41.9689,-9.20227,-10.7996,3.30,4.87,12.18
5.65,2,0,0,98206.10,20.52,337.38,0,0.02,0.04,-0.23,-2.38,9.82,32.99,-41.3328,-9.46794,-10.7497,3.30,4.87,12.17
5.67,2,0,0,98193.16,20.52,338.48,0,0.02,0.06,-0.22,-2.50,9.33,31.77,-40.4075,-9.84952,-10.7018,3.30,4.87,12.17
5.70,2,0,0,98180.22,20.52,339.58,0,0.03,0.02,-0.22,-2.26,9.51,31.95,-39.7856,-10.1147,-10.6553,3.30,4.87,12.10
5.72,2,0,0,98169.05,20.52,340.53,0,0.02,0.02,-0.22,-1.52,10.00,31.95,-39.1595,-10.3521,-10.5904,3.30,4.85,12.05
5.74,2,0,0,98154.33,20.51,341.79,0,0.05,0.04,-0.18,-0.91,9.09,32.38,-38.5143,-10.6152,-10.5198,3.27,4.87,12.12
5.76,2,0,0,98147.49,20.51,342.37,0,0.03,0.05,-0.25,-1.10,9.09,32.56,-37.9297,-10.8398,-10.4706,3.29,4.87,12.12
5.78,2,0,0,98138.80,20.52,343.11,0,0.06,-0.02,-0.23,-0.67,8.90,31.10,-37.0135,-11.2295,-10.3647,3.29,4.87,12.12
5.81,2,0,0,98133.62,20.52,343.56,0,0.02,0.04,-0.23,-1.04,9.15,30.79,-36.385,-11.4838,-10.2873,3.30,4.87,12.12
5.83,2,0,0,98122.45,20.52,344.51,0,0.05,0.04,-0.25,-0.55,9.21,32.20,-35.7896,-11.6974,-10.2096,3.30,4.86,12.07
5.85,2,0,0,98129.29,20.53,343.93,0,0.06,0.02,-0.17,0.12,8.23,31.40,-35.1934,-11.927,-10.1419,3.30,4.87,12.05
5.87,2,0,0,98097.38,20.53,346.65,0,0.05,0.02,-0.20,-0.91,8.11,31.04,-34.5859,-12.1648,-10.0649,3.30,4.87,11.99
5.89,2,0,0,98098.23,20.53,346.57,0,0.04,0.02,-0.22,-0.67,7.99,31.28,-33.9828,-12.3896,-9.98912,3.30,4.87,12.07
5.91,2,0,0,98084.44,20.52,347.75,0,0.05,0.02,-0.19,-0.91,7.56,31.34,-33.3788,-12.6116,-9.91261,3.30,4.86,12.00
5.93,2,0,0,98083.54,20.53,347.83,0,0.06,0.02,-0.22,-1.04,7.38,31.46,-32.7692,-12.8403,-9.83376,3.30,4.87,11.92
5.95,2,0,0,98066.31,20.52,349.30,0,0.04,0.01,-0.18,-1.10,7.44,31.65,-32.1608,-13.0618,-9.75957,3.30,4.87,11.96
5.97,2,0,0,98055.95,20.52,350.18,0,0.05,-0.00,-0.20,-1.52,7.20,31.89,-31.5356,-13.2874,-9.67329,3.30,4.87,11.83
5.99,2,0,0,98046.53,20.51,350.99,0,0.06,0.03,-0.20,-1.89,7.26,32.26,-30.6069,-13.6423,-9.54588,3.30,4.87,11.73
6.02,2,0,0,98036.94,20.53,351.80,0,0.02,-0.01,-0.23,-1.65,7.38,31.95,-29.9766,-13.8793,-9.44634,3.30,4.86,11.83
6.04,2,0,0,98024.89,20.52,352.83,0,0.03,0.02,-0.19,-1.46,7.01,32.07,-29.3167,-14.0967,-9.30907,3.30,4.87,11.78
6.06,2,0,0,98003.38,20.52,354.67,0,0.06,0.05,-0.17,-0.85,6.83,32.99,-28.695,-14.3305,-9.21235,3.30,4.86,11.75
6.08,2,0,0,98008.55,20.52,354.23,0,0.02,-0.00,-0.21,-1.71,6.95,31.89,-28.0598,-14.5715,-9.10189,3.30,4.87,11.71
6.10,2,0,0,97998.11,20.53,355.12,0,0.03,0.02,-0.21,-1.40,7.26,32.26,-27.4255,-14.8116,-8.97985,3.30,4.85,11.79
6.12,2,0,0,97993.83,20.52,356.59,0,0.03,0.04,-0.20,-1.52,7.07,31.59,-26.7854,-15.053,-8.8512,3.30,4.86,12.13
6.14,2,0,0,97978.25,20.54,356.81,0,0.00,0.04,-0.20,-1.65,6.83,31.59,-26.1402,-15.2912,-8.71274,3.30,4.87,12.13
6.16,2,0,0,97974.81,20.53,357.99,0,0.04,0.05,-0.19,-1.46,7.20,31.83,-25.5179,-15.5334,-8.59313,3.30,4.87,12.18
6.18,2,0,0,97962.77,20.52,358.14,0,0.02,0.02,-0.21,-1.59,7.44,31.40,-24.5946,-15.9012,-8.40867,3.30,4.87,12.08
6.21,2,0,1,97952.41,20.52,359.02,0,0.02,0.02,-0.20,-1.46,7.80,31.04,-23.9889,-16.1494,-8.28853,3.30,4.86,11.92
6.23,2,0,1,97948.08,20.53,359.39,0,0.01,0.01,-0.18,-1.65,8.17,30.67,-23.3785,-16.3954,-8.1606,3.29,4.86,12.02
6.25,2,0,1,97936.88,20.52,360.35,0,0.05,0.03,-0.19,-1.65,8.54,30.85,-22.4472,-16.774,-7.93483,3.30,4.87,12.12
6.28,2,0,1,97918.77,20.52,361.90,0,0.03,0.06,-0.21,-1.52,8.60,30.30,-21.8757,-17.023,-7.81708,3.30,4.85,12.13
6.30,2,0,1,97916.17,20.52,362.12,0,-0.02,-0.02,-0.18,-1.52,8.90,29.27,-21.2753,-17.2827,-7.6764,3.30,4.87,12.05
6.32,2,0,1,97905.82,20.52,363.00,0,0.01,0.03,-0.20,-1.46,9.15,29.88,-20.6755,-17.5415,-7.52251,3.30,4.87,12.20
6.34,2,0,1,97897.16,20.53,363.74,0,0.02,0.04,-0.19,-0.85,9.27,29.57,-20.0791,-17.8107,-7.37779,3.30,4.87,12.15
6.36,2,0,1,97887.70,20.52,364.55,0,0.03,0.04,-0.21,-1.71,10.12,29.57,-19.4924,-18.0809,-7.22209,3.29,4.87,12.28
6.38,2,0,1,97876.45,20.53,365.51,0,0.01,0.05,-0.22,-0.98,10.30,28.78,-18.9342,-18.3406,-7.0832,3.30,4.87,12.12
6.40,2,0,1,97873.86,20.53,365.73,0,0.03,0.02,-0.19,-1.04,9.88,28.11,-18.3672,-18.6014,-6.93295,3.30,4.87,12.15
6.42,2,0,0,97871.27,20.53,365.95,0,0.05,0.03,-0.19,-0.79,10.30,28.41,-17.7639,-18.8595,-6.74365,3.30,4.86,12.18
6.44,2,0,0,97859.22,20.52,366.98,0,0.03,0.06,-0.16,-0.24,10.12,28.90,-16.9289,-19.2607,-6.50551,3.30,4.86,12.18
6.47,2,0,0,97850.56,20.53,367.72,0,0.02,0.03,-0.20,-0.37,10.49,27.62,-16.3893,-19.5394,-6.35658,3.30,4.87,12.15
6.49,2,0,0,97841.05,20.54,368.54,0,-0.01,0.00,-0.20,-0.37,11.52,27.32,-15.8087,-19.8117,-6.1626,3.30,4.87,12.08
6.51,2,0,0,97835.03,20.53,369.05,0,0.03,0.06,-0.17,0.24,11.40,27.80,-15.2521,-20.0917,-5.98821,3.30,4.87,12.18
6.53,2,0,0,97829.00,20.53,369.57,0,0.01,0.02,-0.19,0.55,11.52,27.74,-14.7039,-20.37,-5.81201,3.30,4.87,12.17
6.55,2,0,0,97819.50,20.53,370.38,0,0.02,0.02,-0.18,0.73,11.52,27.32,-14.15,-20.6483,-5.62729,3.31,4.89,12.17
6.57,2,0,0,97815.22,20.52,370.75,0,0.03,0.04,-0.19,0.37,11.65,27.07,-13.6077,-20.9409,-5.44731,3.30,4.87,12.07
6.59,2,0,0,97812.63,20.52,370.97,0,0.02,0.03,-0.20,0.49,12.62,26.77,-13.0524,-21.2199,-5.24525,3.30,4.86,12.05
6.61,2,0,0,97804.86,20.52,371.63,0,0.03,0.04,-0.18,1.40,11.83,27.01,-12.518,-21.4841,-5.05829,3.30,4.87,12.17
6.63,2,0,0,97787.59,20.53,373.11,0,0.07,0.02,-0.16,1.04,12.20,26.83,-11.9628,-21.7544,-4.84628,3.30,4.86,12.10
6.65,2,0,0,97778.08,20.53,373.92,0,0.05,0.04,-0.15,1.40,12.07,26.77,-11.1326,-22.2012,-4.54795,3.30,4.87,12.15
6.68,2,0,0,97767.72,20.53,374.81,0,-0.02,0.01,-0.19,1.10,12.93,27.56,-10.5991,-22.4868,-4.34751,3.30,4.86,12.18
6.70,2,0,0,97770.31,20.53,374.59,0,0.02,0.03,-0.22,1.22,12.26,26.22,-10.0566,-22.7797,-4.14385,3.30,4.87,12.04
6.72,2,0,0,97756.53,20.53,375.76,0,0.04,0.01,-0.20,1.52,12.87,27.20,-9.50194,-23.0777,-3.92586,3.30,4.87,12.07
6.74,2,0,0,97746.17,20.53,377.09,0,-0.00,0.02,-0.20,1.77,12.99,27.38,-8.93535,-23.3669,-3.68867,3.30,4.86,12.05
6.76,2,0,0,97742.74,20.52,376.94,0,0.02,0.06,-0.19,1.71,12.80,26.95,-8.11269,-23.7955,-3.34775,3.29,4.87,12.12
6.79,2,0,0,97736.66,20.53,377.69,0,0.05,0.03,-0.17,1.71,12.80,26.65,-7.573,-24.0926,-3.12738,3.30,4.85,11.89
6.81,2,0,0,97725.47,20.53,378.42,0,0.03,0.00,-0.19,2.07,13.17,27.13,-7.01961,-24.3868,-2.88637,3.30,4.87,12.00
6.83,2,0,0,97721.13,20.53,378.57,0,0.01,0.02,-0.20,2.68,12.87,27.20,-6.47729,-24.6649,-2.64231,3.30,4.86,11.91
6.85,2,0,0,97716.80,20.54,379.16,0,0.06,0.02,-0.17,2.99,12.62,26.59,-5.92735,-24.963,-2.40091,3.28,4.86,11.99
6.87,2,0,0,97710.78,20.53,380.34,0,0.04,0.02,-0.19,2.13,13.35,26.95,-5.37634,-25.2549,-2.14565,3.30,4.86,11.94
6.89,2,0,0,97704.76,20.53,380.20,0,0.01,0.03,-0.19,2.93,12.87,26.71,-4.85055,-25.5469,-1.89827,3.30,4.86,11.92
6.91,2,0,0,97699.48,20.54,380.65,0,0.02,0.01,-0.17,3.41,12.93,25.91,-4.31949,-25.818,-1.64283,3.30,4.87,11.99
6.93,2,0,0,97691.72,20.54,381.31,0,0.07,0.04,-0.18,2.62,12.68,25.24,-3.79528,-26.109,-1.39411,3.30,4.87,11.99
6.95,2,0,0,97680.56,20.54,382.27,0,0.04,0.01,-0.18,2.93,13.05,25.79,-2.99295,-26.5462,-1.00191,3.29,4.87,11.68
6.98,2,0,0,97679.72,20.53,382.34,0,0.02,0.02,-0.20,3.11,12.93,26.04,-2.43154,-26.8109,-0.71023,3.30,4.86,12.15
7.00,2,0,0,97666.77,20.53,383.45,0,0.06,0.07,-0.17,3.11,12.74,25.85,-1.90484,-27.0922,-0.44192,3.30,4.87,12.08
7.02,2,0,0,97661.59,20.53,383.89,0,0.04,0.01,-0.16,3.60,12.62,25.73,-1.37572,-27.3673,-0.17262,3.30,4.87,12.02
7.04,2,0,0,97658.08,20.54,384.19,0,0.04,0.01,-0.15,3.17,12.32,25.79,-0.84372,-27.6501,0.105471,3.29,4.88,11.83
7.06,2,0,0,97648.66,20.53,385.00,0,0.01,0.02,-0.18,3.48,12.56,25.73,-0.28708,-27.9237,0.404265,3.30,4.86,11.91
7.08,2,0,0,97644.32,20.54,385.37,0,0.04,0.05,-0.18,3.29,12.62,26.04,0.254743,-28.1894,0.698117,3.30,4.87,11.89
7.10,2,0,0,97638.30,20.53,385.88,0,0.04,0.04,-0.16,3.23,12.20,25.37,0.778763,-28.4627,0.983179,3.30,4.86,11.92
7.12,2,0,0,97630.53,20.53,386.55,0,0.02,0.01,-0.15,3.72,12.13,25.43,1.297273,-28.7315,1.267888,3.30,4.87,11.91
7.14,2,0,0,97622.77,20.53,387.21,0,0.04,0.01,-0.17,3.60,12.07,25.12,1.831323,-28.9889,1.569562,3.30,4.87,11.96
7.16,2,0,0,97623.61,20.54,387.14,0,0.05,0.03,-0.15,3.60,12.01,25.06,2.621126,-29.3829,2.023294,3.30,4.86,11.92
7.19,2,0,0,97610.67,20.54,388.25,0,0.04,0.03,-0.18,3.84,11.95,24.88,3.154432,-29.6305,2.338467,3.30,4.86,12.07
7.21,2,0,1,97606.30,20.54,388.63,0,0.05,0.03,-0.15,4.27,11.59,24.94,3.661674,-29.8903,2.635212,3.29,4.87,11.89
7.23,2,0,1,97596.88,20.53,389.43,0,0.03,0.00,-0.18,4.21,11.59,24.76,4.481982,-30.2674,3.136058,3.30,4.85,11.83
7.26,2,0,1,97597.73,20.54,389.36,0,0.02,0.06,-0.19,4.57,11.71,25.30,5.021351,-30.5055,3.467496,3.30,4.87,11.94
7.28,2,0,1,97585.69,20.53,390.39,0,0.05,0.04,-0.17,4.39,11.28,25.00,5.556327,-30.7513,3.798484,3.30,4.87,11.96
7.30,2,0,1,97586.53,20.53,390.32,0,0.03,0.04,-0.18,4.33,11.46,24.94,6.083161,-30.9914,4.129075,3.31,4.87,11.99
7.32,2,0,1,97576.18,20.53,391.21,0,0.04,0.03,-0.17,4.51,11.22,24.63,6.61925,-31.2196,4.472942,3.30,4.87,12.04
7.34,2,0,1,97572.66,20.54,391.51,0,0.07,0.03,-0.16,5.06,11.40,24.82,7.157695,-31.4364,4.822798,3.30,4.87,12.08
7.36,2,0,1,97567.48,20.54,391.95,0,0.04,0.06,-0.16,4.82,10.67,24.39,7.678034,-31.6633,5.1645,3.30,4.87,12.05
7.38,2,0,1,97562.30,20.54,392.39,0,0.04,0.04,-0.17,4.94,10.85,23.96,8.207872,-31.8726,5.513786,3.30,4.89,12.04
7.40,2,0,1,97556.31,20.54,392.91,0,0.06,0.03,-0.15,5.00,10.49,24.39,8.735211,-32.0916,5.867011,3.30,4.87,12.07
7.42,2,0,0,97551.95,20.54,393.28,0,0.04,0.03,-0.14,5.18,10.73,24.27,9.512915,-32.4256,6.39568,3.30,4.86,12.07
7.45,2,0,0,97545.02,20.55,393.88,0,0.03,0.03,-0.18,5.37,10.61,24.15,10.0396,-32.6362,6.758699,3.30,4.87,12.08
7.47,2,0,0,97545.12,20.53,393.87,0,0.04,0.04,-0.17,5.43,10.43,24.15,10.57021,-32.8452,7.126599,3.30,4.87,12.08
7.49,2,0,0,97533.02,20.54,394.90,0,0.03,0.04,-0.16,5.37,10.43,24.33,11.09703,-33.0541,7.497466,3.30,4.86,12.08
7.51,2,0,0,97531.23,20.54,395.06,0,0.04,0.03,-0.17,5.73,10.43,24.33,11.6471,-33.2493,7.891035,3.30,4.88,12.07
7.53,2,0,0,97526.06,20.54,395.50,0,0.03,0.06,-0.16,6.16,10.30,24.82,12.17533,-33.4416,8.270736,3.30,4.87,12.08
7.55,2,0,0,97514.05,20.53,396.53,0,0.04,0.05,-0.17,5.73,10.06,23.90,12.69494,-33.6415,8.651263,3.30,4.88,12.08
7.57,2,0,0,97510.53,20.54,396.83,0,0.05,0.03,-0.18,6.22,10.30,23.84,13.2157,-33.8362,9.0372,3.30,4.86,12.08
7.59,2,0,0,97505.36,20.54,397.28,0,0.04,0.04,-0.17,6.28,10.18,23.66,13.73091,-34.0359,9.422099,3.30,4.87,12.07
7.61,2,0,0,97505.36,20.54,397.28,0,0.02,0.03,-0.16,6.28,10.24,23.72,14.21809,-34.2436,9.791146,3.30,4.87,12.05
7.63,2,0,0,97499.37,20.54,397.79,0,0.01,0.01,-0.19,6.28,10.24,22.99,14.99296,-34.5167,10.38546,3.29,4.87,12.10
7.66,2,0,0,97489.83,20.54,398.61,0,0.05,0.04,-0.16,6.52,10.06,23.17,15.49882,-34.6978,10.77744,3.30,4.87,12.08
7.68,2,0,0,97489.83,20.54,398.61,0,0.04,0.03,-0.15,6.40,9.88,22.87,15.9932,-34.8918,11.16904,3.30,4.87,12.10
7.70,2,0,0,97476.88,20.54,399.72,0,0.03,0.02,-0.16,6.83,10.18,22.68,16.52508,-35.0658,11.59009,3.30,4.87,11.94
7.72,2,0,0,97477.81,20.53,399.64,0,0.03,0.06,-0.17,7.01,10.12,23.72,17.29233,-35.3225,12.20722,3.30,4.87,11.92
7.75,2,0,0,97476.88,20.54,399.72,0,0.04,0.03,-0.16,7.07,9.70,23.11,17.78342,-35.4978,12.61207,3.30,4.87,11.94
7.77,2,0,0,97471.80,20.53,400.15,0,0.04,0.04,-0.17,7.13,9.88,21.89,18.26662,-35.6806,13.01507,3.30,4.90,11.94
7.79,2,0,0,97468.31,20.54,400.45,0,0.03,0.02,-0.18,7.26,9.94,22.07,18.78095,-35.8598,13.44384,3.30,4.87,11.97
7.81,2,0,0,97461.35,20.54,401.05,0,0.02,0.04,-0.19,7.44,10.37,23.29,19.29632,-36.0182,13.87862,3.30,4.86,12.10
7.83,2,0,0,97453.59,20.54,401.71,0,0.05,0.05,-0.15,7.62,10.12,22.50,19.81246,-36.1675,14.31603,3.30,4.87,12.05
7.85,2,0,0,97458.77,20.54,401.27,0,0.03,0.05,-0.14,7.56,9.63,22.68,20.29272,-36.3499,14.73407,3.30,4.87,12.08
7.87,2,0,0,97453.59,20.54,401.71,0,0.02,-0.02,-0.15,8.11,10.12,22.93,20.81198,-36.4962,15.18377,3.30,4.87,12.08
7.89,2,0,0,97438.05,20.54,403.05,0,0.03,0.07,-0.17,7.87,9.82,22.68,21.32738,-36.6398,15.63393,3.30,4.86,11.81
7.91,2,0,0,97447.50,20.55,402.24,0,0.05,0.05,-0.17,7.87,9.82,22.56,21.85447,-36.7903,16.10293,3.30,4.87,12.08
7.93,2,0,0,97432.88,20.54,403.49,0,0.03,0.04,-0.16,8.66,10.06,23.41,22.63189,-37.0154,16.80533,3.30,4.87,12.10
7.96,2,0,0,97430.29,20.54,403.71,0,0.03,0.04,-0.17,8.66,10.06,22.99,23.14584,-37.1452,17.27485,3.30,4.87,12.08
7.98,2,0,0,97429.38,20.55,403.79,0,0.05,0.08,-0.17,8.66,9.88,21.89,23.66298,-37.2768,17.75378,3.30,4.87,12.10
8.00,2,0,0,97425.11,20.54,404.16,0,0.04,0.06,-0.15,9.02,9.94,22.20,24.16805,-37.417,18.22854,3.30,4.87,12.08
8.02,2,0,0,97419.03,20.55,404.68,0,0.04,0.03,-0.15,9.02,10.00,22.13,24.67664,-37.5596,18.7095,3.30,4.87,12.04
8.04,2,0,0,97413.85,20.55,405.12,0,0.02,0.05,-0.16,8.84,10.37,22.20,25.17347,-37.7028,19.19054,3.30,4.87,12.10
8.06,2,0,0,97412.17,20.54,405.27,0,0.03,0.02,-0.16,9.45,10.00,22.07,25.70224,-37.8046,19.69657,3.30,4.86,12.05
8.08,2,0,0,97409.58,20.54,405.49,0,0.07,0.04,-0.13,9.88,9.88,22.44,26.21405,-37.9241,20.19585,3.31,4.87,12.10
8.10,2,0,0,97403.50,20.55,406.01,0,0.02,0.03,-0.14,9.63,9.57,22.56,26.72853,-38.0532,20.70524,3.30,4.87,11.92
8.12,2,0,0,97404.41,20.54,405.93,0,0.03,0.03,-0.16,9.82,10.30,22.56,27.52251,-38.2224,21.49991,3.30,4.87,11.91
8.15,2,0,0,97392.31,20.55,406.97,0,0.03,0.05,-0.17,10.43,10.06,22.93,28.05274,-38.3157,22.03268,3.30,4.87,11.88
8.17,2,0,0,97393.14,20.55,406.90,0,0.07,0.06,-0.17,10.37,10.06,22.32,28.57453,-38.4193,22.56565,3.30,4.87,11.92
8.19,2,0,0,97394.05,20.54,406.82,0,0.02,0.05,-0.14,10.30,10.12,22.38,29.37748,-38.5327,23.38593,3.30,4.87,12.07
8.22,2,0,1,97386.29,20.54,407.49,0,0.08,0.08,-0.17,10.61,10.12,22.13,29.89699,-38.6185,23.93156,3.30,4.86,11.89
8.24,2,0,1,97381.11,20.54,408.38,0,0.03,0.05,-0.14,10.85,9.76,22.01,30.43131,-38.6882,24.49115,3.30,4.86,11.92
8.26,2,0,1,97369.95,20.54,408.89,0,0.07,0.08,-0.16,10.91,10.30,21.95,30.92736,-38.7803,25.02846,3.30,4.87,11.94
8.28,2,0,1,97385.48,20.54,407.56,0,0.03,0.02,-0.15,10.79,9.70,21.46,31.45444,-38.8409,25.59268,3.30,4.87,11.89
8.30,2,0,1,97368.17,20.54,409.04,0,0.04,0.06,-0.13,11.04,9.82,21.83,31.95419,-38.93,26.14652,3.30,4.87,11.97
8.32,2,0,1,97374.19,20.55,408.53,0,0.02,0.03,-0.16,11.16,10.06,21.52,32.46357,-38.9957,26.71026,3.30,4.87,12.08
8.34,2,0,1,97370.76,20.54,408.82,0,0.05,0.05,-0.16,11.28,9.88,21.16,32.98033,-39.0642,27.28996,3.30,4.86,12.07
8.36,2,0,1,97354.32,20.55,410.23,0,0.02,0.04,-0.16,11.71,10.00,22.07,33.50172,-39.1085,27.87539,3.30,4.87,12.07
8.38,2,0,1,97362.89,20.56,409.50,0,0.05,0.05,-0.14,11.89,9.70,21.46,34.01095,-39.17,28.4614,3.30,4.87,12.04
8.40,2,0,1,97362.09,20.55,409.56,0,0.02,0.04,-0.15,12.01,10.00,21.52,34.76031,-39.2595,29.33456,3.30,4.86,12.02
8.43,2,0,0,97356.91,20.55,410.01,0,0.04,0.02,-0.16,11.77,10.12,21.10,35.27792,-39.2873,29.93664,3.30,4.87,11.73
8.45,2,0,0,97353.48,20.55,410.30,0,0.04,0.07,-0.16,12.26,9.70,21.16,35.76406,-39.3413,30.52274,3.30,4.87,11.92
8.47,2,0,0,97340.54,20.55,411.41,0,0.02,-0.00,-0.13,12.38,9.70,21.04,36.27518,-39.3621,31.12925,3.30,4.87,12.10
8.49,2,0,0,97343.97,20.55,411.12,0,0.06,0.04,-0.14,12.38,10.00,20.67,36.78555,-39.3869,31.74496,3.30,4.87,12.18
8.51,2,0,0,97339.70,20.54,411.49,0,0.02,0.04,-0.16,12.62,9.88,21.40,37.30922,-39.3837,32.37052,3.29,4.87,12.10
8.53,2,0,0,97341.38,20.55,411.34,0,0.03,0.06,-0.13,12.50,9.76,21.28,37.8205,-39.3952,33.0016,3.30,4.87,12.02
8.55,2,0,0,97334.52,20.54,411.93,0,0.04,0.04,-0.17,13.29,9.88,21.04,38.3483,-39.3671,33.63664,3.30,4.87,12.00
8.57,2,0,0,97336.20,20.55,411.34,0,0.08,0.07,-0.16,12.68,9.88,20.91,38.85046,-39.3669,34.26684,3.30,4.87,12.18
8.59,2,0,0,97331.94,20.54,412.15,0,0.02,0.03,-0.14,13.17,9.70,20.85,39.37359,-39.3376,34.91636,3.30,4.87,12.10
8.61,2,0,0,97345.62,20.56,411.65,0,0.06,0.06,-0.18,13.35,9.76,21.04,40.15314,-39.2761,35.89,3.30,4.87,12.17
8.64,2,0,0,97325.85,20.55,412.68,0,0.03,0.06,-0.15,13.17,9.51,21.04,40.656,-39.2479,36.53576,3.30,4.88,12.18
8.66,2,0,0,97318.99,20.54,413.26,0,0.04,0.05,-0.19,13.41,9.94,20.37,41.13538,-39.2268,37.16737,3.30,4.87,12.20
8.68,2,0,0,97325.85,20.55,412.68,0,0.00,0.02,-0.14,13.72,9.33,20.18,41.65256,-39.1545,37.82615,3.30,4.87,12.20
8.70,2,0,0,97320.67,20.55,413.12,0,0.05,0.05,-0.13,13.60,9.39,20.37,42.41947,-39.0533,38.8203,3.30,4.87,12.07
8.73,2,0,0,97320.67,20.55,413.12,0,0.04,0.04,-0.15,13.66,9.76,20.49,42.91124,-38.9907,39.47169,3.30,4.87,12.04
8.75,2,0,0,97316.41,20.54,413.49,0,0.01,0.02,-0.13,13.78,9.45,20.37,43.45147,-38.859,40.15401,3.30,4.88,12.15
8.77,2,0,0,97313.81,20.54,413.71,0,0.08,0.08,-0.14,13.66,9.57,20.79,43.95396,-38.765,40.81857,3.30,4.87,12.17
8.79,2,0,0,97310.32,20.55,414.01,0,0.00,0.06,-0.15,14.02,9.39,20.43,44.45684,-38.6575,41.48381,3.30,4.87,12.10
8.81,2,0,0,97311.23,20.54,413.93,0,0.06,0.03,-0.18,14.02,9.33,20.00,44.96875,-38.5321,42.16004,3.30,4.86,12.20
8.83,2,0,0,97304.30,20.55,414.53,0,0.02,0.06,-0.13,14.33,9.21,20.24,45.49556,-38.3817,42.84892,3.30,4.87,12.04
8.85,2,0,0,97310.32,20.55,414.01,0,0.05,0.05,-0.13,14.39,9.33,20.49,46.01641,-38.2262,43.53404,3.30,4.87,11.99
8.87,2,0,0,97307.73,20.55,414.23,0,0.07,0.05,-0.14,14.57,9.51,19.94,46.72441,-38.0496,44.50426,3.30,4.87,11.99
8.90,2,0,0,97300.88,20.54,414.82,0,-0.01,0.00,-0.14,14.45,9.15,20.06,47.25492,-37.8572,45.19756,3.30,4.87,12.13
8.92,2,0,0,97306.05,20.54,414.38,0,0.06,0.05,-0.13,14.70,9.27,20.37,47.75152,-37.6914,45.86353,3.30,4.87,12.07
8.94,2,0,0,97306.79,20.56,414.31,0,0.02,0.04,-0.17,14.51,9.27,19.88,48.27103,-37.4917,46.54947,3.31,4.87,12.00
8.96,2,0,0,97300.77,20.56,414.83,0,0.04,0.05,-0.13,15.00,9.21,20.06,48.78137,-37.2918,47.22635,3.30,4.87,12.04
8.98,2,0,0,97294.79,20.55,415.34,0,0.03,0.04,-0.15,14.94,9.21,20.12,49.29379,-37.0757,47.89865,3.30,4.88,12.02
9.00,2,0,0,97299.97,20.55,414.90,0,0.04,0.06,-0.17,14.63,9.33,19.94,49.80295,-36.8559,48.56849,3.30,4.87,11.91
9.02,2,0,0,97305.14,20.55,414.45,1,0.04,0.04,-0.17,14.94,9.45,19.94,50.29401,-36.6405,49.21702,3.30,4.87,11.97
9.04,2,0,0,97301.61,20.56,414.76,0,0.02,0.03,-0.17,14.88,9.21,19.57,50.80735,-36.3953,49.88537,3.30,4.87,11.86
9.06,2,0,0,97289.61,20.56,415.79,0,0.03,0.03,-0.13,15.61,9.15,20.06,51.3349,-36.1085,50.54869,3.30,4.87,12.07
9.08,2,0,0,97293.95,20.55,415.41,0,0.08,0.08,-0.14,15.00,8.78,19.57,51.84229,-35.8372,51.19328,3.30,4.87,11.94
9.10,2,0,0,97294.79,20.55,415.34,0,0.06,0.04,-0.15,15.30,8.66,19.27,52.61448,-35.4015,52.15843,3.30,4.87,12.04
9.13,2,0,0,97299.02,20.56,414.98,1,0.06,0.04,-0.14,15.49,8.78,19.45,53.11255,-35.1175,52.77713,3.30,4.87,12.02
9.15,2,0,0,97297.38,20.55,415.12,0,0.02,0.03,-0.16,15.37,8.84,19.70,53.63749,-34.7932,53.41001,3.30,4.86,12.08
9.17,2,0,0,97299.97,20.55,414.90,1,0.05,0.06,-0.15,15.49,8.84,19.94,54.13603,-34.4831,54.00702,3.30,4.88,12.15
9.19,2,0,0,97291.26,20.56,415.65,0,0.03,0.06,-0.15,15.49,8.48,19.02,54.89761,-33.98,54.8917,3.30,4.87,12.17
9.22,2,0,1,97279.27,20.55,416.68,0,0.07,0.03,-0.13,15.61,8.29,18.90,55.41985,-33.6194,55.48038,3.32,4.87,11.97
9.24,2,0,1,97287.02,20.55,416.01,0,0.07,0.07,-0.15,15.73,8.48,19.33,55.91958,-33.2708,56.03312,3.30,4.87,12.00
9.26,2,0,1,97291.26,20.56,415.65,1,0.04,0.04,-0.13,15.49,8.05,18.90,56.42307,-32.9113,56.57538,3.30,4.86,12.00
9.28,2,0,1,97283.49,20.56,416.31,0,0.03,0.05,-0.13,15.98,7.99,19.09,56.91232,-32.556,57.08663,3.29,4.87,12.08
9.30,2,0,1,97283.59,20.55,416.30,0,0.03,0.03,-0.14,15.85,7.74,18.78,57.39745,-32.1949,57.5756,3.30,4.87,11.99
9.32,2,0,1,97281.84,20.55,416.45,0,0.04,0.03,-0.14,15.61,7.87,18.35,57.85677,-31.852,58.01993,3.30,4.87,12.17
9.34,2,0,1,97287.02,20.55,416.01,1,0.02,0.00,-0.15,15.73,7.68,18.05,58.3759,-31.4362,58.50556,3.30,4.87,12.15
9.36,2,0,1,97281.84,20.55,416.45,0,0.10,0.08,-0.16,15.67,7.80,18.84,59.13389,-30.8241,59.17252,3.30,4.87,12.13
9.39,2,0,1,97282.66,20.56,416.38,0,0.03,0.05,-0.13,15.79,7.74,19.15,59.6323,-30.4117,59.58423,3.30,4.90,12.17
9.41,2,0,1,97285.24,20.56,416.16,1,0.05,0.04,-0.14,15.61,7.32,18.66,60.15347,-29.9684,59.99787,3.30,4.87,12.17
9.43,2,0,0,97284.44,20.55,416.23,0,0.06,0.08,-0.15,15.43,7.50,19.33,60.64281,-29.5532,60.35087,3.30,4.87,12.13
9.45,2,0,0,97283.49,20.56,416.31,0,0.04,0.01,-0.13,15.85,7.56,18.66,61.14053,-29.1231,60.68642,3.30,4.87,12.18
9.47,2,0,0,97284.34,20.57,416.24,0,0.02,0.03,-0.15,15.79,7.38,19.45,61.63152,-28.692,60.99294,3.29,4.86,12.18
9.49,2,0,0,97286.08,20.56,416.09,1,0.04,0.02,-0.13,15.49,7.20,18.66,62.15151,-28.2256,61.30461,3.30,4.86,12.20
9.51,2,0,0,97286.08,20.56,416.09,2,0.07,0.07,-0.15,15.55,7.50,19.15,62.63232,-27.7947,61.54173,3.30,4.87,12.12
9.53,2,0,0,97286.08,20.56,416.09,3,0.02,0.02,-0.15,15.73,7.50,18.72,63.11157,-27.3601,61.74953,3.30,4.87,12.17
9.55,2,0,0,97288.67,20.56,415.87,4,0.02,0.02,-0.15,15.73,7.26,18.66,63.61989,-26.8911,61.96228,3.30,4.87,12.18
9.57,2,0,0,97293.84,20.56,415.42,5,0.05,0.05,-0.15,15.67,7.13,19.09,64.38178,-26.1806,62.22537,3.30,4.87,12.18
9.60,2,0,0,97291.26,20.56,415.65,6,0.05,0.07,-0.15,15.85,7.07,18.84,64.87338,-25.7189,62.34867,3.30,4.87,12.13
9.62,2,0,0,97286.08,20.56,416.09,0,0.06,0.05,-0.14,16.04,6.65,17.93,65.36097,-25.2577,62.4413,3.30,4.87,12.20
9.64,2,0,0,97285.24,20.56,416.16,0,0.06,0.03,-0.13,15.85,6.65,17.87,65.85368,-24.7885,62.50817,3.30,4.87,12.05
9.66,2,0,0,97286.08,20.56,416.09,0,0.06,0.03,-0.14,15.85,6.65,18.23,66.33013,-24.3328,62.52629,3.30,4.87,12.00
9.68,2,0,0,97289.61,20.55,415.79,1,0.04,0.02,-0.15,15.85,6.52,18.05,67.07228,-23.6185,62.54663,3.30,4.86,11.94
9.71,2,0,0,97290.42,20.56,415.72,2,0.07,0.05,-0.13,15.79,6.22,17.87,67.54838,-23.1586,62.49205,3.30,4.87,11.88
9.73,2,0,0,97284.44,20.55,416.23,0,0.02,0.02,-0.12,15.91,6.22,18.35,68.00443,-22.7175,62.39144,3.30,4.87,11.99
9.75,2,0,0,97290.42,20.56,415.72,1,0.02,0.01,-0.14,16.04,5.79,17.62,68.48414,-22.2523,62.29991,3.30,4.87,12.13
9.77,2,0,0,97288.77,20.55,415.86,2,0.07,0.02,-0.15,15.85,5.67,17.68,68.96921,-21.7818,62.17799,3.30,4.87,11.92
9.79,2,0,0,97293.01,20.56,415.50,3,0.05,0.02,-0.15,16.04,5.49,18.29,69.45398,-21.3113,62.05152,3.30,4.85,12.17
9.81,2,0,0,97292.20,20.56,415.56,4,0.04,0.04,-0.12,15.37,5.24,18.11,69.94101,-20.8385,61.89388,3.30,4.87,12.07
9.83,2,0,0,97292.91,20.57,415.50,5,0.05,0.06,-0.15,15.79,5.30,18.05,70.43272,-20.3618,61.73173,3.30,4.87,12.20
9.85,2,0,0,97294.69,20.56,415.35,6,0.09,0.03,-0.14,15.67,5.18,17.87,71.17903,-19.6383,61.4472,3.30,4.87,12.18
9.88,2,0,0,97289.52,20.57,415.80,0,0.07,0.05,-0.15,15.49,5.30,18.35,71.62998,-19.2027,61.18253,3.30,4.87,12.18
9.90,2,0,0,97299.02,20.56,414.98,1,0.02,0.00,-0.17,15.61,4.76,17.74,72.11575,-18.736,60.94063,3.30,4.87,12.13
9.92,2,0,0,97299.02,20.56,414.98,2,0.06,0.05,-0.14,15.61,4.51,17.87,72.59874,-18.2721,60.6863,3.30,4.87,12.15
9.94,2,0,0,97301.61,20.56,414.76,3,0.07,0.03,-0.14,15.30,4.70,17.80,73.06797,-17.8233,60.38077,3.30,4.88,12.12
9.96,2,0,0,97301.61,20.56,414.76,4,0.04,0.00,-0.14,15.79,4.51,17.99,73.53909,-17.3751,60.06271,3.30,4.87,12.13
9.98,4,1,0,97302.45,20.57,414.68,5,0.04,0.04,-0.15,15.85,4.27,17.74,74.04974,-16.8942,59.75704,3.30,4.87,11.70
10.00,4,1,0,97311.97,20.56,413.87,6,0.05,0.03,-0.13,15.91,3.90,19.39,74.53785,-16.4356,59.44622,3.30,4.89,11.68
10.02,4,1,0,97308.44,20.57,414.17,7,0.07,0.06,-0.14,15.49,3.84,17.80,75.01788,-16.0419,59.03116,3.30,4.87,11.46
10.04,4,1,0,97302.45,20.57,414.68,0,-0.14,0.22,-2.06,20.18,-7.44,19.57,75.3914,-15.4656,58.94845,3.30,4.87,11.41
10.06,4,1,0,97415.50,20.56,404.98,1,-2.27,-3.15,-2.10,-3.96,52.20,18.60,75.86974,-15.122,59.64583,3.30,4.87,11.41
10.09,4,1,0,97570.81,20.56,391.67,2,-1.64,0.67,2.64,-5.73,-11.52,18.84,76.28255,-14.7943,58.92016,3.30,4.87,11.46
10.11,4,1,0,97482.80,20.56,399.21,3,-0.89,-0.95,-0.93,30.24,-5.98,17.07,76.70295,-14.4973,58.40125,3.30,4.86,10.81
10.13,4,1,0,97504.35,20.57,397.36,4,-0.51,-1.08,0.38,27.07,-12.62,17.50,77.19452,-14.1368,57.92793,3.30,4.87,11.23
10.15,4,1,0,97429.38,20.56,403.79,0,0.04,0.33,0.21,28.23,-11.10,18.72,77.72807,-13.6795,57.52867,3.30,4.87,11.49
10.17,4,1,0,97363.73,20.56,409.42,0,0.18,0.37,-0.50,17.62,-0.43,19.70,78.39742,-13.1351,56.75344,3.30,4.86,11.54
10.20,4,1,0,97355.13,20.56,413.05,0,-0.26,-0.10,-0.23,20.98,-0.98,20.43,78.90053,-12.7328,56.23955,3.30,4.87,11.52
10.22,4,1,0,97261.95,20.56,418.16,0,-0.04,0.03,-0.25,19.76,-2.80,20.61,79.50969,-12.2096,55.82829,3.30,4.86,11.26
10.24,4,1,0,97149.84,20.55,428.69,0,0.07,0.07,-0.13,17.44,2.62,22.99,80.10827,-11.7027,55.392,3.30,4.87,11.41
10.26,4,1,0,97061.84,20.55,435.37,0,0.00,0.12,-0.32,16.95,2.68,24.70,80.7061,-11.229,54.93785,3.30,4.87,11.39
10.28,4,1,0,97023.02,20.55,438.71,0,-0.13,0.05,-0.23,18.23,-1.22,27.32,81.7561,-10.4199,54.22545,3.30,4.87,11.38
10.31,4,1,0,97004.91,20.55,440.27,0,0.04,-0.04,-0.20,19.63,-3.90,29.15,82.43379,-9.9046,53.73238,3.30,4.87,11.34
10.33,4,1,0,96910.06,20.54,448.44,0,0.01,0.07,-0.25,19.39,-3.23,28.11,83.11055,-9.39491,53.30063,3.30,4.87,11.67
10.35,4,1,0,96908.20,20.56,448.60,0,-0.03,0.05,-0.24,16.89,-3.11,29.45,84.0512,-8.67485,53.05839,3.30,4.87,11.62
10.37,4,1,0,96872.92,20.55,450.52,0,0.02,0.18,-0.05,18.05,-4.15,39.09,85.00314,-7.91916,52.81922,3.30,4.87,11.68
10.39,4,1,0,96834.09,20.55,454.98,0,0.23,0.20,-0.30,12.80,0.61,40.61,85.91011,-7.19355,52.55397,3.30,4.87,11.68
10.41,4,1,0,96842.66,20.56,454.91,0,0.20,0.19,-0.38,11.77,2.68,39.09,86.9913,-6.33739,52.27574,3.30,4.87,11.59
10.43,4,1,0,96767.61,20.56,460.72,0,0.05,0.32,-0.17,14.39,2.44,46.46,87.99741,-5.56134,52.23988,3.30,4.87,11.67
10.45,4,1,0,96734.92,20.55,443.46,1,-0.23,0.14,0.20,8.90,-0.61,50.06,89.14583,-4.71631,52.06946,3.30,4.87,11.41
10.47,4,1,0,96892.67,20.56,449.93,0,-0.10,0.08,-0.45,7.50,-6.22,55.67,90.47843,-3.67808,51.93355,3.30,4.87,11.44
10.49,4,1,0,96941.13,20.54,448.21,1,0.19,-0.11,-0.14,7.93,0.79,62.20,92.14683,-2.42258,51.63508,3.30,4.86,11.65
10.52,4,1,0,97007.50,20.55,440.04,2,-0.20,-0.10,-0.21,7.32,-0.67,55.67,93.22803,-1.63002,51.32036,3.30,4.86,11.68
10.54,4,1,0,96967.00,20.54,447.32,0,0.15,0.03,-0.25,9.39,-3.17,48.54,94.03708,-1.04251,50.98379,3.30,4.87,11.63
10.56,4,1,0,96891.95,20.54,450.00,0,0.20,0.42,-0.33,10.30,-1.59,33.96,94.51519,-0.73119,50.64089,3.30,4.87,11.63
10.58,4,1,0,96844.45,20.55,452.30,0,0.18,0.21,-0.24,9.76,-4.02,17.50,94.71787,-0.6274,50.37284,3.30,4.86,11.57
10.60,4,1,0,96863.48,20.54,452.45,0,0.14,0.17,-0.26,6.16,-4.09,5.12,94.79963,-0.5935,50.05412,3.30,4.86,11.65
10.62,4,1,0,96868.66,20.54,452.00,0,0.12,0.15,-0.38,7.26,0.79,-0.18,94.66542,-0.67685,50.00661,3.30,4.87,11.60
10.64,4,1,0,96889.36,20.54,450.22,1,-0.10,0.15,-0.38,-2.74,4.21,-5.67,94.6141,-0.6749,49.85571,3.30,4.87,11.36
10.66,4,1,0,96859.14,20.55,452.82,0,0.21,-0.07,-0.22,2.38,7.68,-6.10,94.43968,-0.83429,49.43131,3.30,4.87,11.63
10.68,4,1,0,96857.50,20.54,452.96,0,0.01,-0.05,-0.12,10.98,3.23,-12.38,94.14606,-1.11515,49.00718,3.30,4.86,11.46
10.71,4,1,0,96873.83,20.54,451.56,0,-0.01,0.05,-0.31,5.49,-1.04,-11.95,93.88745,-1.34272,48.64689,3.30,4.87,11.39
10.73,4,1,0,96886.88,20.53,450.43,1,0.13,0.07,-0.42,8.54,0.24,-17.32,92.40232,-2.6353,48.04277,3.30,4.87,11.41
10.75,4,1,0,96886.05,20.52,450.50,2,-0.34,1.79,-0.91,18.35,-16.46,-75.12,89.68369,-5.23783,45.70191,3.30,4.86,11.28
10.77,4,1,0,96887.83,20.52,450.35,3,-0.57,0.60,1.76,83.54,-58.17,-155.43,84.88941,-8.96763,43.53999,3.30,4.87,11.50
10.80,4,1,0,96931.72,20.53,446.57,4,-2.03,1.50,2.04,38.90,-20.73,-167.93,81.49357,-11.3671,42.42843,3.30,4.87,11.44
10.82,4,1,0,96894.64,20.53,449.76,5,-2.65,0.67,0.34,13.23,-3.05,-170.49,78.06218,-13.6402,41.52664,3.29,4.87,11.49
10.84,4,1,0,96899.94,20.51,449.31,6,-2.11,0.29,-0.06,-5.79,11.40,-167.68,73.76704,-16.3703,40.31909,3.30,4.86,11.49
10.86,4,1,0,96909.34,20.52,448.50,7,-0.55,0.16,-0.09,-16.77,25.49,-208.90,68.9676,-19.4019,38.36704,3.30,4.87,11.60
10.88,4,1,0,96892.17,20.51,449.98,0,1.10,-0.19,-0.98,-5.55,18.11,-242.80,63.39547,-22.8329,35.79586,3.30,4.87,11.57
10.90,4,1,0,96949.11,20.51,445.07,1,1.40,0.45,-1.16,-5.18,17.01,-282.50,56.47181,-26.4872,32.15131,3.30,4.88,11.68
10.92,4,1,0,96958.63,20.51,444.25,2,3.23,-0.32,-2.67,-17.01,59.39,-352.26,48.50535,-29.7466,27.72641,3.30,4.87,11.63
10.94,4,1,0,96958.63,20.51,444.25,3,1.27,0.39,-0.80,-46.83,113.84,-407.74,40.85315,-32.519,23.30375,3.30,4.87,11.63
10.96,4,1,0,96967.22,20.51,443.51,4,-1.02,0.08,0.65,-40.61,85.37,-390.43,33.69391,-34.1676,19.25859,3.30,4.87,11.55
10.98,4,1,0,96996.63,20.50,440.98,5,-1.95,0.77,-6.62,-69.51,107.20,-365.49,24.61224,-36.7974,14.4501,3.30,4.87,11.46
11.01,4,1,0,97066.51,20.50,434.97,6,-1.85,-0.35,6.24,-63.23,35.00,-304.88,19.05204,-40.6138,11.18724,3.30,4.87,11.54
11.03,4,1,0,97070.73,20.51,434.60,7,-0.15,5.33,-4.41,16.10,-114.63,-272.62,13.98164,-42.7414,9.516728,3.30,4.87,11.49
11.05,4,1,0,97088.95,20.50,433.03,8,-2.01,3.99,-6.82,-209.57,-10.85,-251.71,9.610603,-43.7368,7.8895,3.30,4.87,11.31
11.07,4,1,0,97158.00,20.49,427.10,9,-1.84,2.28,-2.77,-188.84,18.41,-220.06,6.42483,-44.4918,6.585795,3.30,4.87,11.39
11.09,4,1,0,97201.99,20.49,423.31,10,0.20,2.80,2.80,-127.99,3.41,-161.22,4.55967,-45.9422,6.55324,3.30,4.86,11.54
11.11,4,1,0,97296.84,20.50,415.17,11,-0.97,1.85,-0.21,-183.84,-30.00,-100.18,5.149944,-47.2459,8.010667,3.30,4.87,11.63
11.13,4,1,0,97340.09,20.48,411.45,12,2.77,7.63,3.40,-153.48,-40.12,18.78,8.016511,-47.8557,13.08615,3.30,4.87,11.49
11.15,4,1,0,97552.33,20.48,393.25,13,5.56,16.00,-10.09,-429.70,11.16,131.46,9.790539,-47.0622,18.44687,3.30,4.87,11.62
11.17,4,1,0,97555.01,20.47,393.02,14,1.99,16.00,-16.00,-535.00,117.20,104.82,12.2273,-45.3176,28.04824,3.30,4.87,11.44
11.20,4,1,0,97509.36,20.46,402.04,15,1.10,4.67,-6.56,-579.63,172.56,132.20,10.57116,-43.3414,35.68582,3.30,4.87,11.25
11.22,4,1,0,97402.41,20.45,406.10,16,3.17,7.08,-13.98,-677.13,287.80,146.40,0.364431,-40.7509,43.9946,3.30,4.87,11.34
11.24,4,1,0,97304.06,20.45,414.55,0,1.13,0.44,-13.60,-649.70,301.77,182.80,-119.197,-33.8008,56.13065,3.30,4.87,11.18
11.27,4,1,0,97255.84,20.44,418.69,0,2.12,1.78,-15.31,-633.72,360.30,251.83,-129.56,-29.7216,58.59219,3.30,4.86,11.34
11.29,4,1,0,97267.84,20.45,417.66,0,3.34,4.15,-14.31,-624.27,466.40,203.72,-129.151,-26.7091,55.71956,3.30,4.87,11.41
11.31,4,1,0,97324.77,20.45,412.77,1,8.03,5.15,-16.00,-672.13,621.59,190.73,-127.385,-26.745,50.4456,3.30,4.86,11.60
11.33,4,1,0,97342.14,20.45,411.28,2,0.17,-0.72,-16.00,-645.67,740.98,118.11,-124.718,-28.4363,47.03877,3.30,4.87,11.62
11.35,4,1,0,97291.13,20.45,415.66,0,-4.94,-4.99,-11.72,-597.32,828.23,127.99,-122.935,-31.2793,46.30711,3.30,4.87,11.63
11.37,4,1,0,97238.63,20.45,420.17,0,-16.00,-13.65,-6.97,-420.79,722.13,87.93,-126.213,-37.2066,44.49748,3.30,4.87,11.65
11.39,4,1,0,97271.37,20.44,417.35,0,-16.00,-15.28,-0.85,-219.21,502.07,-136.83,-131.94,-44.0096,39.42023,3.30,4.87,11.59
11.41,4,1,0,97306.76,20.45,414.31,1,-9.24,-4.01,0.82,-206.40,308.84,-272.68,-139.585,-50.6309,31.37555,3.30,4.85,11.33
11.43,4,1,0,97336.06,20.44,411.80,2,-3.78,-2.63,-0.89,-84.51,11.52,-413.11,-148.09,-56.9557,22.3682,3.30,4.86,11.55
11.45,4,1,0,97353.34,20.43,410.32,3,-2.55,-8.00,2.15,-98.11,-2.99,-463.41,-162.14,-63.256,9.322536,3.30,4.87,11.62
11.48,4,1,0,97392.16,20.44,406.98,4,-3.19,-7.65,-1.41,45.12,-52.38,-488.54,-168.631,-63.9233,3.605973,3.30,4.87,11.60
